idx,Last Name(s),company,Title (as a thought leader),notes,City/State,Country,city,website,lat,lng,tax1,tax2,tax3
0,Abiola-Awe,Oluwadabira Abiola-Awe,Ventures & Solutions Movement Associate,Student Energy,Lagos,Nigeria,"Lagos, Nigeria",https://www.linkedin.com/in/oluwadabira-abiola-awe-200649189/,6.524379,3.379206,Leader,Leader,Leader
1,Achapka,Priscilla Achapka,Global President,Women Environmental Programme,Abuja,Nigeria,"Abuja, Nigeria",https://wepnigeria.net/index.php/team/priscilla-achakpa/,9.076478,7.398574,Leader,Leader,Leader
2,Adler,Meredith Adler,Executive Director,Student Energy,Vancouver,Canada,"Vancouver, Canada",https://www.linkedin.com/in/meredithadler/ ,49.282729,-123.120738,Leader,Leader,Leader
3,Aggarwal,Sonia Aggarwal,Former Chief Executive Officer,Energy Innovation,"San Francisco, CA",USA,"San Francisco, CA, USA",https://www.linkedin.com/in/soniaaggarwal/,37.77493,-122.419416,Leader,Leader,Leader
4,Agya Utama,Nuki Agya Utama,Executive Director at ASEAN Centre for Energy,ASEAN center for Energy,Jakarta,Indonesia,"Jakarta, Indonesia",https://www.linkedin.com/in/nuki-agya-utama-phd-99450018/,-6.208763,106.845599,Leader,Leader,Leader
5,Aldridge,Jessica Aldridge,Director of Sustainability and Zero Watse Programs,Athens Services,"Los Angeles, CA",USA,"Los Angeles, CA, USA",https://www.linkedin.com/in/jessicaaldridgegreenbean/,34.052234,-118.243685,Leader,Leader,Leader
6,AlJameel,Ahmed AlJameel,International Climate & Energy Policy Analyst at Ministry of Energy,Saudi Arabia Ministry of Energy,Riyadh,Saudi Arabia,"Riyadh, Saudi Arabia",https://www.linkedin.com/in/ahmed-aljameel-msc-394b4649/,24.713552,46.675296,Leader,Leader,Leader
7,Alonso-Martinez,Manuel Alonso-Martinez,Executive Director,Earth Team,"El Sobrante, CA",USA,"El Sobrante, CA, USA",https://www.linkedin.com/in/manuel-alonso-martinez-b14aa220/,37.977145,-122.295247,Leader,Leader,Leader
8,Alzelzela,Fatemah Alzelzela,Founder,EcoStar,Kuwait City,Kuwait,"Kuwait City, Kuwait",https://www.instagram.com/eco.star.kw/?hl=en,29.375859,47.977405,Leader,Leader,Leader
9,Amador,Giana Amador,Founder and Policy Director,Carbon 180,"Oakland, CA",USA,"Oakland, CA, USA",https://www.linkedin.com/in/gianaamador/,37.804351,-122.271164,Leader,Leader,Leader
10,Ambrose,Kristal Ambrose,Founder,Bahamas Plastic Movement,Eleuthera,The Bahamas,"Eleuthera, The Bahamas",https://www.goldmanprize.org/recipient/kristal-ambrose/,24.931446,-76.189966,Leader,Leader,Leader
11,Amin,Adnan Amin,Former Director General,International Renewable Energy Agency (IRENA),"Cambridge, MA",USA,"Cambridge, MA, USA",https://www.linkedin.com/in/adnan-amin/,42.373616,-71.109734,Leader,Leader,Leader
12,Anastas,Paul Anastas,Director of the Center for Green Chemistry and Green Engineering,Yale University,"New Haven, CT",USA,"New Haven, CT, USA",https://environment.yale.edu/profiles/faculty/paul-anastas,41.308274,-72.927884,Leader,Leader,Leader
13,Andersen,Inger Andersen,Director-General,International Union for Conservation of Nature (IUCN),Nairobi,Kenya,"Nairobi, Kenya",https://www.unep.org/people/inger-andersen,-1.292066,36.821946,Leader,Leader,Leader
14,Anderson,James Anderson,Professor of Atmospheric Chemistry,Harvard University,Cambridge. MA,USA,"Cambridge. MA, USA",https://www.seas.harvard.edu/person/james-anderson,42.373616,-71.109734,Leader,Leader,Leader
15,Anderson,Susan Anderson,Former Director,Portland Bureau of Planning and Sustainability,"Portland, OR",USA,"Portland, OR, USA",https://www.linkedin.com/in/susan-anderson-2348828,45.515232,-122.678385,Leader,Leader,Leader
16,Attenborough,David Attenborough,Broadcaster,,London,United Kingdom,"London, United Kingdom",https://twitter.com/attenboroughsir?lang=en,51.507218,-0.127586,Leader,Leader,Leader
17,Azevedo,Tasso Azevedo,Founder,Imaflora,São Paulo,Brazil,"São Paulo, Brazil",https://www.linkedin.com/in/tassoazevedo/?originalSubdomain=br  https://www.ted.com/speakers/tasso_azevedo,-23.555771,-46.639557,Leader,Leader,Leader
18,Backer,Benji Backer,Founder and President,American Conservation Coalition,"Appleton, WI",USA,"Appleton, WI, USA",https://www.linkedin.com/in/benjibacker/,44.261931,-88.415385,Leader,Leader,Leader
19,Baddache,Farid Baddache,Chief Executive Officer and Co-Founder,Ksapa,Paris,France,"Paris, France",https://www.linkedin.com/in/farid-baddache/,48.856614,2.352222,Leader,Leader,Leader
20,Baggs,David Baggs,Chief Executive Officer and Program Director,Global Green Tag,Brisbane,Australia,"Brisbane, Australia",https://www.linkedin.com/in/ecolabel-green-product-certification-transparency-cradle-to-cradle-declare/?originalSubdomain=au,-27.470453,153.026034,Leader,Leader,Leader
21,Bahri,Akissa Bahri,"Former Minister, Professor","Agriculture, Water Resources and Fisheries/National Agricultural Institute of Tanzania",Tunis,Tunisia,"Tunis, Tunisia",https://inweh.unu.edu/governance/iac/akissa-bahri/,36.806495,10.181532,Leader,Leader,Leader
22,Baiget,Ester Baiget,President and Chief Executive Officer,Nomozymes,Bagsværd,Denmark,"Bagsværd, Denmark",https://www.linkedin.com/in/ester-baiget-6723a074/,55.765314,12.457244,Leader,Leader,Leader
23,Bainimarama,Frank  Bainimarama,Prime Minister,The Republic of Fiji,Suva,Fiji,"Suva, Fiji",https://twitter.com/FijiPM?ref_src=twsrc%5Egoogle%7Ctwcamp%5Eserp%7Ctwgr%5Eauthor,-18.140505,178.423251,Leader,Leader,Leader
24,Baker,Shalanda Baker,Deputy Director for Energy Justice ,"Office of Economic Impact and Development, US Department of Energy","Washington, DC",USA,"Washington, DC, USA",https://www.linkedin.com/in/shalanda-baker-13a607205/,38.907192,-77.036871,Leader,Leader,Leader
25,Bakker,Peter Bakker,President,World Business Council for Sustainable Development,Geneva,Switzerland,"Geneva, Switzerland",https://www.linkedin.com/in/peter-bakker-14a13638/,46.204391,6.143158,Leader,Leader,Leader
26,Ballin,Lee Ballin,Head of Business Development and Sustainability,Bloomberg NEF,"New York, NY",USA,"New York, NY, USA",https://www.linkedin.com/in/lee-ballin-85aa2033/,40.712775,-74.005973,Leader,Leader,Leader
27,Bande,Charlotte Bande,Global Head of Climate Strategy,Quantis International,"San Diego, CA",USA,"San Diego, CA, USA",https://www.linkedin.com/in/charlotte-bande/,32.715738,-117.161084,Leader,Leader,Leader
28,Basel,Sharon Basel,Senior Manager of Sustainability,General Motors,"Detroit, MI",USA,"Detroit, MI, USA",https://www.linkedin.com/in/sharonbasel/,42.331427,-83.045754,Leader,Leader,Leader
29,Bassiere,Nestor Batio Bassiere,"Minister of Environment, Climate Change, and Green Economy",Burkina Faso,Ouagadougou,Burkina Faso,"Ouagadougou, Burkina Faso",https://www.linkedin.com/in/batio-nestor-bassiere-6036a450/?originalSubdomain=bf,12.371428,-1.51966,Leader,Leader,Leader
30,Bastida,Xiye Bastida,Lead Organizer,Fridays for Future,"New York, NY",USA,"New York, NY, USA",https://www.linkedin.com/in/xiye-bastida-377394199/,40.712775,-74.005973,Leader,Leader,Leader
31,Becker,Nicole Becker,Co-founder,Jóvenes por el Clima Argentina (Youth for Climate Argentina),Buenos Aires,Argentina,"Buenos Aires, Argentina",https://twitter.com/nickibeckerok?lang=en,-34.603684,-58.381559,Leader,Leader,Leader
32,Beckham,Sophie Beckham,Chief Sustainability Officer,International Paper,"Ashville, NC",USA,"Ashville, NC, USA",https://www.linkedin.com/in/sophie-beckham-18209957/,35.595058,-82.551487,Leader,Leader,Leader
33,Bellaguarda,Flavia Bellaguarda,Co-founder & Ambassador,Youth Climate Leaders,São Paulo,Brazil,"São Paulo, Brazil",https://www.linkedin.com/in/fl%C3%A1via-bellaguarda/,-23.555771,-46.639557,Leader,Leader,Leader
34,Benisi,Mona Benisi,Global Head of Sustainability Real Assets,Morgan Stanley,"New York, NY",USA,"New York, NY, USA",https://www.linkedin.com/in/mona-benisi-64b00b68/,40.712775,-74.005973,Leader,Leader,Leader
35,Benyus,Janine Benyus,Founder,Biomimicry Institute,"Stevensville, MT",USA,"Stevensville, MT, USA",https://www.linkedin.com/in/janine-benyus-a5626/ ,46.509922,-114.093159,Leader,Leader,Leader
36,Berg,Christian Berg,University Lecturer,Kiel University,Heikendorf,Germany,"Heikendorf, Germany",https://www.linkedin.com/in/prof-dr-christian-berg-38150511/?locale=en_US,54.379377,10.211254,Leader,Leader,Leader
37,Bergoglio,"His Holiness Pope Francis, Jorge Mario Bergoglio",Bishop of Rome; Author,Roman Catholic Church; Laudato Si',Vatican City ,Vatican City ,"Vatican City , Vatican City",https://twitter.com/Pontifex?ref_src=twsrc%5Egoogle%7Ctwcamp%5Eserp%7Ctwgr%5Eauthor,41.902916,12.453389,Leader,Leader,Leader
38,Berlin,Ken Berlin,President and Chief Executive Officer,The Climate Reality Project,"Washington, DC",USA,"Washington, DC, USA",https://www.linkedin.com/in/kberlin/,38.907192,-77.036871,Leader,Leader,Leader
39,Bernard,Mitchell Bernard,Chief Counsel,NRDC,"New York, NY",USA,"New York, NY, USA",https://www.nrdc.org/experts/mitchell-bernard,40.712775,-74.005973,Leader,Leader,Leader
40,Bhargava,Apoorv Bhargava,Chief Executive Officer and Co-Founder,Weave Grid,"San Francisco, CA",USA,"San Francisco, CA, USA",https://www.linkedin.com/in/apoorv-bhargava/,37.77493,-122.419416,Leader,Leader,Leader
41,Bierbaum,Rosina Bierbaum,Professor of Environmental Policy and Planning Climate + Energy,University of Michigan,"Ann Arbor, MI",USA,"Ann Arbor, MI, USA",https://seas.umich.edu/research/faculty/rosina-bierbaum ,42.280826,-83.743038,Leader,Leader,Leader
42,bin Rashid Al Maktoum,H.H. Sheikh Mohammed bin Rashid Al Maktoum,Vice President and Prime Minister,UAE,Dubai,UAE,"Dubai, UAE",https://www.linkedin.com/in/mohammedbinrashid/?originalSubdomain=ae,25.204849,55.270783,Leader,Leader,Leader
43,Birol,Fatih Birol,Executive Director,International Energy Agency (IEA),Paris,France,"Paris, France",https://www.linkedin.com/in/fatih-birol-66862a195/,48.856614,2.352222,Leader,Leader,Leader
44,Blasco,José Luis Blasco,Global Sustainability Director,Acciona,Madrid,Spain,"Madrid, Spain",https://www.linkedin.com/in/joseluisblasco/,40.416775,-3.70379,Leader,Leader,Leader
45,Boeve,May Boeve,Executive Director,350.org,"Brooklyn, NY",USA,"Brooklyn, NY, USA",https://twitter.com/mayboeve?lang=en,40.678178,-73.944158,Leader,Leader,Leader
46,Bonita,Abby Bonita,Head of Sustainability Reporting and Compliance,MERALCO,Manila,Philippines,"Manila, Philippines",https://www.linkedin.com/in/abby-bonita-b7931365/,14.599512,120.98422,Leader,Leader,Leader
47,Bouhia,Hynd Bouhia,President and Chief Executive Officer,Strategica,Rabat,Morocco,"Rabat, Morocco",https://www.linkedin.com/in/hynd-bouhia-phd-0289a3a3/,33.97159,-6.849813,Leader,Leader,Leader
48,Boukhchina,Rim Boukhchina,Head of Sustainable Energy Policies and Member States Support Unit,RCREEE,Ben Arous,Tunisia,"Ben Arous, Tunisia",https://www.linkedin.com/in/rim-boukhchina-99bb686b/,36.7435,10.231976,Leader,Leader,Leader
49,Boyd,Lisa Boyd,Senior Director of Corporate Responsibility and Sustainability,Target,"Minneapolis, MN",USA,"Minneapolis, MN, USA",https://www.linkedin.com/in/lmboyd/,44.977753,-93.265011,Leader,Leader,Leader
50,Brandt,Kate Brandt,Chief Sustainability Officer,Google,"Mountain View, CA",USA,"Mountain View, CA, USA",https://www.linkedin.com/in/katebrandt/,37.386052,-122.083851,Leader,Leader,Leader
51,Brannigan,Peggy Brannigan,"Senior Program Manager, Global Environmental Sustainability",LinkedIn,"San Francisco, CA",USA,"San Francisco, CA, USA",https://www.linkedin.com/in/peggybrannigan/,37.77493,-122.419416,Leader,Leader,Leader
52,Bratter,Deanna Bratter,Head of Sustainable Development,Danone,"Lafayette, CO",USA,"Lafayette, CO, USA",https://www.linkedin.com/in/deannabratter/,39.993596,-105.089706,Leader,Leader,Leader
53,Brinkema,Corey Brinkema,Chief Executive Officer,Forest Stewardship Council,"Minneapolis, MN",USA,"Minneapolis, MN, USA",https://www.linkedin.com/in/corey-brinkema-b529338/ ,44.977753,-93.265011,Leader,Leader,Leader
54,Bromberg,Gidon Bromberg,Co-Founder and Israeli Director,EcoPeace Middle East,Tel Aviv,Israel,"Tel Aviv, Israel",https://www.linkedin.com/in/gidon-bromberg-276504/?originalSubdomain=il,32.0853,34.781768,Leader,Leader,Leader
55,Brooks,Tim Brooks,VP of Environmental Sustainability and Corporate Responsibility,Lego,Billund,Denmark,"Billund, Denmark",https://www.linkedin.com/in/tim-brooks-48a5b09/?originalSubdomain=dk  https://www.fastcompany.com/person/tim-brooks,55.728449,9.112366,Leader,Leader,Leader
56,Brown,Jerry Brown,Former Governor,State of California,"Colusa, CA",USA,"Colusa, CA, USA",https://governors.library.ca.gov/34-jbrown.html,39.214334,-122.009418,Leader,Leader,Leader
57,Brown,Carol-Ann Brown,President,The Delphi Group,Calgary,Canada,"Calgary, Canada",https://www.linkedin.com/in/carol-ann-brown-37512923/?originalSubdomain=ca,51.044733,-114.071883,Leader,Leader,Leader
58,Brune,Michael Brune,Executive Director,Sierra Club,"Oakland, CA",USA,"Oakland, CA, USA",https://www.linkedin.com/in/michael-brune-6805421b/,37.804351,-122.271164,Leader,Leader,Leader
59,Brunel-Ligneau,Christine Brunel-Ligneau,Head of Sustainable Agriculture,Bayer AG CropScience Division,Düsseldorf,Germany,"Düsseldorf, Germany",https://www.linkedin.com/in/christine-brunel-ligneau/?originalSubdomain=de,51.227741,6.773456,Leader,Leader,Leader
60,Buchanan,Marisa Buchanan,"Managing Director, Head of Sustainability",JP Morgan Chase & Co.,"New York, NY",USA,"New York, NY, USA",https://www.linkedin.com/in/marisa-buchanan-2b10206/,40.712775,-74.005973,Leader,Leader,Leader
61,Buchner,Barbara Buchner,Global Managing Director,Climate Policy Initiative,"San Francisco, CA",USA,"San Francisco, CA, USA",https://www.linkedin.com/in/barbara-buchner-3baaa86/,37.77493,-122.419416,Leader,Leader,Leader
62,Bullard,Robert Bullard,Distinguished Professor of Urban Planning at the Barbara Jordan-Mickey Leland School of Public Affairs,Texas Southern University,"Houston, TX",USA,"Houston, TX, USA",https://www.linkedin.com/in/robert-bullard-7b471733/,29.760427,-95.369803,Leader,Leader,Leader
63,Bulus,Gloria  Bulus,Founder,Bridge That Gap Initiative,Kaduna ,Nigeria,"Kaduna , Nigeria",https://www.linkedin.com/in/gloria-kasang-bulus-1b006830/?originalSubdomain=ng,10.510464,7.416505,Leader,Leader,Leader
64,Burston,Jane Burston,"Executive Director, Former Head of Climate and Environment","Clean Air Fund, United Kingdom National Physical Laboratory",London,United Kingdom,"London, United Kingdom",https://www.linkedin.com/in/janeburston/,51.507218,-0.127586,Leader,Leader,Leader
65,Cakman,Burak Cakman,Former Dean of Fashion,Parsons School of Design,London,United Kingdom,"London, United Kingdom",https://www.linkedin.com/in/burak-cakmak-2b8a4a1/?originalSubdomain=uk,51.507218,-0.127586,Leader,Leader,Leader
66,Calder,Sasha Calder,Head of Sustainability,Genomatica,"San Diego, CA",USA,"San Diego, CA, USA",https://www.linkedin.com/in/sashacalder/,32.715738,-117.161084,Leader,Leader,Leader
67,Cameron,James Cameron,Senior Advisor,"Pollination, Tulchan & SYSTEMIQ",London,United Kingdom,"London, United Kingdom",https://www.linkedin.com/in/jamescameron4/,51.507218,-0.127586,Leader,Leader,Leader
68,Cameron,Lynelle Preston Cameron,Vice President of Sustainability; Chief Executive Officer of Autodesk Foundation,Autodesk,"San Francisco, CA",USA,"San Francisco, CA, USA",https://www.linkedin.com/in/lynelle-preston-cameron-2b11591/,37.77493,-122.419416,Leader,Leader,Leader
69,Campanale,Mark Campanale,Founder and Executive Director,Carbon Tracker,London,United Kingdom,"London, United Kingdom",https://www.linkedin.com/in/mark-campanale-1886203/,51.507218,-0.127586,Leader,Leader,Leader
70,Cao,Xiangkun (Elvis) Cao,Global Shaper,World Economic Forum,"Cambridge, MA",USA,"Cambridge, MA, USA",https://www.linkedin.com/in/xiangkun-elvis-cao/?miniProfileUrn=urn%3Ali%3Afs_miniProfile%3AACoAABGYeU4BBddA4zIpSXAcA2ZUelcqtO6kDd8,42.373616,-71.109734,Leader,Leader,Leader
71,Cave,Etosha Cave,Co-Founder and Chief Science Officer,Twelve,"Berkeley, CA",USA,"Berkeley, CA, USA",https://www.linkedin.com/in/etoshac/,37.871523,-122.273042,Leader,Leader,Leader
72,Changhua,Wu Changhua,Chief Executive Officer,Beijing Future Innovation Center,Beijing,China,"Beijing, China",https://www.linkedin.com/in/changhua-wu-a9495237/,39.904211,116.407395,Leader,Leader,Leader
73,Cheikhrouhou,Hela  Cheikhrouhou,Regional Vice President,International Finance Corporation (IFC),Tunis,Tunisia,"Tunis, Tunisia",https://www.linkedin.com/in/hela-cheikhrouhou-69081010/,36.806495,10.181532,Leader,Leader,Leader
74,Chen,Ted Chen,"Co-Founder, Chief Executive Officer, and Chief Product Architect",EverComm Singapore,Singapore,Singapore,"Singapore, Singapore",https://www.linkedin.com/in/chiuhaochen/,1.352083,103.819836,Leader,Leader,Leader
75,Chew,Emily Chew,Executive Vice President and Chief Responsible Investment Officer,Calvert Research and Management,"New York, NY",USA,"New York, NY, USA",https://www.linkedin.com/in/chewemily/,40.712775,-74.005973,Leader,Leader,Leader
76,Cho,Herry  Cho,"Managing Director, Head of Sustainability and Sustainable Finance",SGX,Singapore,Singapore,"Singapore, Singapore",https://www.linkedin.com/in/herrycho/,1.352083,103.819836,Leader,Leader,Leader
77,Chong,Susan Chong,Founder and Chief Executive Officer,Greenpac,Singapore,Singapore,"Singapore, Singapore",https://www.linkedin.com/in/susan-chong-b9515623/?originalSubdomain=sg,1.352083,103.819836,Leader,Leader,Leader
78,Chopra,Jyoti Chopra,Chief Diversity and Sustainability Officer,MGM Resorts International,"New York, NY",USA,"New York, NY, USA",https://www.linkedin.com/in/jyoti-chopra-inclusion/,40.712775,-74.005973,Leader,Leader,Leader
79,Clarke,Isha Clarke,Founding Member,Youth vs. Apocalypse,"Oakland, CA",USA,"Oakland, CA, USA",https://www.instagram.com/curlyqisha/?hl=en,37.804351,-122.271164,Leader,Leader,Leader
80,Clarkson,Helen Clarkson,Chief Executive Officer,The Climate Group,London,United Kingdom,"London, United Kingdom",https://www.linkedin.com/in/helenclarkson/,51.507218,-0.127586,Leader,Leader,Leader
81,Cohen,Ellie Cohen,Chief Executive Officer,The Climate Center,"San Francisco, CA",USA,"San Francisco, CA, USA",https://www.linkedin.com/in/elliecohen/,37.77493,-122.419416,Leader,Leader,Leader
82,Colicchio,Lisa Colicchio,Director of Sustainability,Metrolink,"Los Angeles, CA",USA,"Los Angeles, CA, USA",https://www.linkedin.com/in/lisacolicchio/,34.052234,-118.243685,Leader,Leader,Leader
83,Coneim,Myriam Coneim,Director of Sustainability,American Express,"New York, NY",USA,"New York, NY, USA",https://www.linkedin.com/in/myriamconeim/?locale=en_US,40.712775,-74.005973,Leader,Leader,Leader
84,Connelly,James Connelly,Chief Executive Officer,My Green Lab,"Seattle, WA",USA,"Seattle, WA, USA",https://www.linkedin.com/in/james-connelly-55909024/,47.60621,-122.332071,Leader,Leader,Leader
85,Conseil,Dominique Nils Conseil,Founder and Former Chief Executive Officer,Sustainable Results,"Minneapolis, MN",USA,"Minneapolis, MN, USA",https://www.linkedin.com/in/dominique-nils-conseil/,44.977753,-93.265011,Leader,Leader,Leader
86,Cook,Pia Heidenmark Cook,Chief Sustainability Officer,IKEA,Stockholm,Sweden,"Stockholm, Sweden",https://www.linkedin.com/in/pia-heidenmark-cook-bb088042/,59.329324,18.068581,Leader,Leader,Leader
87,Cooke,Erin Cooke,Sustainability Director,San Francisco International Airport,"San Francisco, CA",USA,"San Francisco, CA, USA",https://www.linkedin.com/in/erinmcooke/,37.77493,-122.419416,Leader,Leader,Leader
88,Copeny,Mari Copeny,"Little Miss Flint, Founder",Wednesdays For Water,"Flint, MI",USA,"Flint, MI, USA",https://twitter.com/LittleMissFlint?ref_src=twsrc%5Egoogle%7Ctwcamp%5Eserp%7Ctwgr%5Eauthor,43.012527,-83.687456,Leader,Leader,Leader
89,Coss,Terry Coss,Retired - Corporate Environmental Director,Xcel Energy,"Minneapolis, MN",USA,"Minneapolis, MN, USA",https://www.linkedin.com/in/terry-coss-5981b649/,44.977753,-93.265011,Leader,Leader,Leader
90,Costlow,John Costlow,President,Sustainable Energy Fund,"Schnecksville, PA",USA,"Schnecksville, PA, USA",https://www.linkedin.com/in/johncostlow/,40.674911,-75.617899,Leader,Leader,Leader
91,Criscuolo,Alexandra Criscuolo,Environmental Sustainability Manager,New York Road Runners,"New York, NY",USA,"New York, NY, USA",https://www.linkedin.com/in/alexandracriscuolo/,40.712775,-74.005973,Leader,Leader,Leader
92,Crowther,Thomas Crowther,Assistant Professor of Global Ecosystem Ecology,ETH Zurich,Zurich,Switzerland,"Zurich, Switzerland",https://www.linkedin.com/in/crowther-thomas-ecology/,47.376887,8.541694,Leader,Leader,Leader
93,Curamil,Alberto  Curamil,Leader and Spokesperson,Alianza Territorial Mapuche,Aracaunia,Chile,"Aracaunia, Chile",https://www.goldmanprize.org/recipient/alberto-curamil/,-38.948921,-72.331113,Leader,Leader,Leader
94,D'Herde,Dorothee D'Herde,Former Director of Sustainability and Social Impact,McKinsey & Company,London,United Kingdom,"London, United Kingdom",https://www.linkedin.com/in/dorotheedherde/,51.507218,-0.127586,Leader,Leader,Leader
95,Daily,Gretchen  Daily,Senior Fellow,"Woods Institute for the Environment, Stanford University","Palo Alto, CA",USA,"Palo Alto, CA, USA",https://woods.stanford.edu/people/gretchen-c-daily,37.441883,-122.14302,Leader,Leader,Leader
96,Daley,Jad Daley,President and Chief Executive Officer,American Forests,"Washington, DC",USA,"Washington, DC, USA",https://www.linkedin.com/in/jad-daley-08882010/,38.907192,-77.036871,Leader,Leader,Leader
97,Damen,Maureen Damen,Founder ,Rise Up Senegal,Dakar,Senegal,"Dakar, Senegal",https://twitter.com/risesenegal?lang=en,14.716677,-17.467686,Leader,Leader,Leader
98,Dandridge,Cyane Dandridge,Executive Director,Strategic Energy Innovations (SEI),"San Rafael, CA",USA,"San Rafael, CA, USA",https://www.linkedin.com/in/cyane-dandridge-6a86a0/,37.973535,-122.531087,Leader,Leader,Leader
99,Daniell,Lisa Daniell,Director of Climate Change,New Zealand Ministry for the Environment,Auckland,New Zealand,"Auckland, New Zealand",https://www.linkedin.com/in/lisa-daniell-5b353421/,-36.850883,174.764488,Leader,Leader,Leader
100,Dasgupta,Aniruddha Dasgupta,President and Chief Executive Officer,World Resources Institute (WRI),"Washington, DC",USA,"Washington, DC, USA",https://www.linkedin.com/in/aniruddha-dasgupta/,38.907192,-77.036871,Leader,Leader,Leader
101,Davenport,Juliet Davenport,Founder and Chief Executive Officer,Good Energy,Swindon,United Kingdom,"Swindon, United Kingdom",https://www.linkedin.com/in/juliet-davenport-643564/,51.555774,-1.779718,Leader,Leader,Leader
102,Davis,Tony Davis,Chief Executive Officer and Chief Information Officer,Inherent Group,"New York, NY",USA,"New York, NY, USA",https://www.linkedin.com/in/tony-davis-42491819b,40.712775,-74.005973,Leader,Leader,Leader
103,Davis,Bill Davis,Founder & Managing Director,Stance Capital ,"Winchester, MA",USA,"Winchester, MA, USA",https://www.linkedin.com/in/bill-davis-90a7b91/,42.452303,-71.136996,Leader,Leader,Leader
104,de Groot,Han de Groot,Executive Director; Former Chief Executive Officer,WASTE NL; Rainforest Alliance,South Holland,Netherlands,"South Holland, Netherlands",https://www.linkedin.com/in/handegroot1/,41.600868,-87.606989,Leader,Leader,Leader
105,de los Angeles Carvajal,Maria de los Angeles Carvajal,Founder,"SuMar, Choices for Nature",Guaymas,Mexico,"Guaymas, Mexico",https://www.sustainabilityleadersnetwork.org/fellows/maria-carvajal/,27.917865,-110.908938,Leader,Leader,Leader
106,de Schaepmeester,Jonas de Schaepmeester,Program Manager Decarbonization,Umicore,Ghent,Belgium,"Ghent, Belgium",https://www.linkedin.com/in/jonas-de-schaepmeester-he-him-9b531377/?originalSubdomain=be,51.050018,3.730335,Leader,Leader,Leader
107,Dee,Jon Dee,Founder and Managing Director,DoSomething,Sydney,Australia,"Sydney, Australia",https://www.linkedin.com/in/jondee/,-33.86882,151.209296,Leader,Leader,Leader
108,del Hierro Calvachi,Ana Gabriela del Hierro Calvachi,Researcher,Instituto Nacional de Biodiversidad (INABIO),Quito ,Ecuador,"Quito , Ecuador",https://www.linkedin.com/in/adelhierrocalvachi/?originalSubdomain=ec,-0.180653,-78.467838,Leader,Leader,Leader
109,DeSimone,Joseph DeSimone,Exec. Chairman and Co-founder,Carbon3d,"San Francisco, CA",USA,"San Francisco, CA, USA",https://www.linkedin.com/in/josephdesimone1/,37.77493,-122.419416,Leader,Leader,Leader
110,Dhanuka,Ankur Dhanuka,Deep Decarbonization Research Fellow with the Environment and Natural Resources Program,Harvard University,"Cambridge, MA",USA,"Cambridge, MA, USA",https://www.linkedin.com/in/ankur-dhanuka-744bbb28/,42.373616,-71.109734,Leader,Leader,Leader
111,Diaz,Illac Diaz,Founder,Liter of Light,Manila,Philippines,"Manila, Philippines",https://www.linkedin.com/in/ildiaz/?originalSubdomain=ph,14.599512,120.98422,Leader,Leader,Leader
112,Díaz Mirabal,Gregorio Díaz Mirabal,General Coordinator,Indigenous Organizations of the Amazon Basin (COICA),Caracas,Venezuela,"Caracas, Venezuela",https://www.facebook.com/josegregorio.diazmirabal,10.480594,-66.903606,Leader,Leader,Leader
113,DiBianca,Suzanne DiBianca,EVP Corporate Relations and Chief Impact Officer,Salesforce,"San Francisco, CA",USA,"San Francisco, CA, USA",https://www.linkedin.com/in/suzannedibianca/,37.77493,-122.419416,Leader,Leader,Leader
114,Dillen,Abigail Dillen,President,Earthjustice,"San Francisco, CA",USA,"San Francisco, CA, USA",https://www.linkedin.com/in/abbie-dillen/ ,37.77493,-122.419416,Leader,Leader,Leader
115,DiNola,Ralph DiNola,Chief Executive Officer,New Buildings Institute,"Portland, OR",USA,"Portland, OR, USA",https://www.linkedin.com/in/ralph-dinola-2092ab1/ ,45.515232,-122.678385,Leader,Leader,Leader
116,Dixson-Declѐve,Sandrine Dixson-Declѐve,Senior Advisor,Interel,Brussels,Belgium,"Brussels, Belgium",https://www.linkedin.com/in/sandrine-dixson-decl%C3%A8ve-9074aa2/?originalSubdomain=be,50.847642,4.35717,Leader,Leader,Leader
117,Dorsey,M.K. Dorsey,Limited Partner,Ibersun,"Washington, DC",USA,"Washington, DC, USA",https://www.linkedin.com/in/profmkd/,38.907192,-77.036871,Leader,Leader,Leader
118,Dorsey,Cheryl Dorsey,President,Echoing Green,"Washington, DC",USA,"Washington, DC, USA",https://www.linkedin.com/in/cheryl-dorsey/,38.907192,-77.036871,Leader,Leader,Leader
119,Duan,Bin Duan,Director,Beijing Carbon-Change Environment Research Center,Beijing,China,"Beijing, China",https://www.linkedin.com/in/bin-duan-036115a2/,39.904211,116.407395,Leader,Leader,Leader
120,Duarte,Mafalda Duarte,Chief Executive Officer,Climate Investment Funds,"Washington, DC",USA,"Washington, DC, USA",https://www.linkedin.com/in/mafaldaduarte1/ ,38.907192,-77.036871,Leader,Leader,Leader
121,Dumain,Jill Dumain,Global Vice President of Sustainability Solutions; Former Chief Executive Officer,SGS; BlueSign Technologies,"Santa Barbara, CA",USA,"Santa Barbara, CA, USA",https://www.linkedin.com/in/jilldumain/?originalSubdomain=ch,34.42083,-119.69819,Leader,Leader,Leader
122,Edahiro,Junko Edahiro,President,"Institute for Studies in Happiness, Economy and Society (ISHES)",Tokyo,Japan,"Tokyo, Japan",https://www.linkedin.com/in/junko-edahiro-98a57b162/?originalSubdomain=jp,35.676192,139.650311,Leader,Leader,Leader
123,Edozien,Ndidi Nnoli Edozien,Chair,Circular Economy Innovation Partnership (CEIP),Lagos,Nigeria,"Lagos, Nigeria",https://www.linkedin.com/in/dr-ndidi-nnoli-edozien-798649141/?originalSubdomain=ng,6.524379,3.379206,Leader,Leader,Leader
124,Ehnes,Jack Ehnes,Chief Executive Officer,CalSTRS ,"West Sacramento, CA",USA,"West Sacramento, CA, USA",https://www.linkedin.com/in/jack-ehnes/,38.580461,-121.530234,Leader,Leader,Leader
125,Ehrlich,Paul Ehrlich,"President, Center for Conservation Biology, Bing Professor of Population Studies",Stanford University,"Palo Alto, CA",USA,"Palo Alto, CA, USA",https://ccb.stanford.edu/paul-r-ehrlich,37.441883,-122.14302,Leader,Leader,Leader
126,El Aynaoui,Karim El Aynaoui,President,Policy Center for the New South,Rabat,Morocco,"Rabat, Morocco",https://www.linkedin.com/company/policycenterns/about/,33.97159,-6.849813,Leader,Leader,Leader
127,El Battouty,Sarah El Battouty,Chairman Founder,ECOnsult architecture,Cairo,Egypt,"Cairo, Egypt",https://www.linkedin.com/in/sarah-el-battouty-2b823081/?originalSubdomain=eg,30.04442,31.235712,Leader,Leader,Leader
128,Elliott,John Elliott,Chief Sustainability Officer,Lawrence Berkeley National Laboratory,"Berkeley, CA",USA,"Berkeley, CA, USA",https://www.linkedin.com/in/john-elliott-7317a662/,37.871523,-122.273042,Leader,Leader,Leader
129,Ellsmoor,James Ellsmoor,Founder and Chief Executive Officer; Director,Island Innovation; Solar Head of State,Lisbon,Portugal,"Lisbon, Portugal",https://www.linkedin.com/in/jellsmoor/,38.722252,-9.139337,Leader,Leader,Leader
130,Emerson,Jed Emerson,"Managing Director, Global Lead Impact Investing",Tiedemann Advisors,"New York, NY",USA,"New York, NY, USA",https://www.linkedin.com/in/jedemerson/,40.712775,-74.005973,Leader,Leader,Leader
131,Espinosa,Patricia Espinosa,Executive Secretary,United Nations Framework Convention on Climate Change (UNFCCC),Bonn,Germany,"Bonn, Germany",https://twitter.com/PEspinosaC?ref_src=twsrc%5Egoogle%7Ctwcamp%5Eserp%7Ctwgr%5Eauthor,50.73743,7.098207,Leader,Leader,Leader
132,Euston-Brown,Megan Euston-Brown,Director at Sustainable Energy Africa,Director at Sustainable Energy Africa,Cape Town,South Africa,"Cape Town, South Africa",https://www.sustainable.org.za/people.php,-33.924868,18.424055,Leader,Leader,Leader
133,Fay Zahniser,Meghan Fay Zahniser,Executive Director,The Association for the Advancement of Sustainability in Higher Education (AASHE),"Philadelphia, PA",USA,"Philadelphia, PA, USA",linkedin.com/in/meghan-fay-zahniser-5616087,39.952584,-75.165222,Leader,Leader,Leader
134,Fernández Bremauntz,Adrian Fernández Bremauntz,Chief Executive Officer,Iniciativa Climática de México,Mexico City,Mexico,"Mexico City, Mexico",https://www.linkedin.com/in/adrian-fern%C3%A1ndez-284a4930/?originalSubdomain=mx,19.432608,-99.133208,Leader,Leader,Leader
135,"Fernández Luiselli
",Edda Fernández Luiselli,Director General,Primary Sector and Renewable Natural Resources in the Undersecretary for Environmental Regulation and Promotion of the Ministry of Environment and Natural Resources (SEMARNAT),Mexico City,Mexico,"Mexico City, Mexico",https://twitter.com/eddafdz?lang=en,19.432608,-99.133208,Leader,Leader,Leader
136,Ferreyra Acosta,Vicente Ferreyra Acosta,Chief Executive Officer ,Sustentur,Quintana Roo,Mexico,"Quintana Roo, Mexico",https://www.linkedin.com/in/vicenteferreyra/,19.181739,-88.479138,Leader,Leader,Leader
137,Figueres,Christiana Figueres,Founding Partner,Global Optimism,San Jose,Costa Rica,"San Jose, Costa Rica",https://www.linkedin.com/in/christianafigueres/ ,37.338208,-121.886329,Leader,Leader,Leader
138,Findlay,Martha Hall Findlay,Chief Sustainability Officer,Suncor,Calgary,Canada,"Calgary, Canada",https://www.linkedin.com/in/marthahallfindlay/?originalSubdomain=ca,51.044733,-114.071883,Leader,Leader,Leader
139,Flynn,Cassie Flynn,Strategic Advisor on Climate Change,United Nations Development Programme (UNDP),"New York, NY",USA,"New York, NY, USA",https://www.linkedin.com/in/cassieflynn/ ,40.712775,-74.005973,Leader,Leader,Leader
140,Foley,Jonathan Foley,Executive Director,Project Drawdown,"San Francisco, CA",USA,"San Francisco, CA, USA",https://www.linkedin.com/in/jonathan-foley-182808b9/,37.77493,-122.419416,Leader,Leader,Leader
141,Forrest,Andrew Forrest,Founder,GH2,Perth,Australia,"Perth, Australia",https://www.linkedin.com/in/andrew-forrest-57672b1a/?originalSubdomain=au,-31.952312,115.861309,Leader,Leader,Leader
142,Fouad,Yasmine Fouad,Minister of Environment,Arabic Republic of Egypt,Cairo,Egypt,"Cairo, Egypt",https://www.eeaa.gov.eg/en-us/aboutus/aboutministry/minister.aspx,30.04442,31.235712,Leader,Leader,Leader
143,Fraser,Mike Fraser,VP of Global Sustainability Services,Schneider Electric,"Louisville, KY",USA,"Louisville, KY, USA",https://www.linkedin.com/in/mnfraser/,38.252665,-85.758456,Leader,Leader,Leader
144,Freijo,Juan Jose Freijo,"Vice President, Global Head of Sustainability and EMEA Government Affairs",Brambles,Madrid,Spain,"Madrid, Spain",https://www.linkedin.com/in/j-j-freijo-42935410/,40.416775,-3.70379,Leader,Leader,Leader
145,Fresco,Louise Fresco,President of the Executive Board,Wageningen University & Research,Wageningen,Netherlands,"Wageningen, Netherlands",https://twitter.com/louiseofresco?lang=en,51.981224,5.658416,Leader,Leader,Leader
146,Friedmann,Julio Friedmann,"Senior Research Scholar, Lead of CaMRI Initiative",Columbia University,"New York, NY",USA,"New York, NY, USA",https://www.linkedin.com/in/julio-friedmann-86a83a44/,40.712775,-74.005973,Leader,Leader,Leader
147,Friend,Gil Friend,Chief Executive Officer,Natural Logic,"Berkeley, CA",USA,"Berkeley, CA, USA",https://www.linkedin.com/in/gfriend/,37.871523,-122.273042,Leader,Leader,Leader
148,Furtado,Marcelo Furtado,Chief Sustainability Officer,ZScore,São Paulo,Brazil,"São Paulo, Brazil",https://www.linkedin.com/in/marcelo-furtado-49912861/en/?originalSubdomain=br,-23.555771,-46.639557,Leader,Leader,Leader
149,Garcetti,Eric Garcetti,"Mayor of LA, Chairperson",C40 Cities,"Los Angeles, CA",USA,"Los Angeles, CA, USA",https://www.linkedin.com/in/ericgarcetti/ ,34.052234,-118.243685,Leader,Leader,Leader
150,Gates,Bill Gates,Co-chair,Bill and Melinda Gates Foundation,"Seattle, WA",USA,"Seattle, WA, USA",https://www.linkedin.com/in/williamhgates/,47.60621,-122.332071,Leader,Leader,Leader
151,Gauri,Pratik Gauri,Partner and India President,5th Element Group PBC,Delhi,India,"Delhi, India",https://www.linkedin.com/in/pratikgauri/,28.704059,77.10249,Leader,Leader,Leader
152,Gelobter,Michel Gelobter,Managing Director,Reflective Earth,"Berkeley, CA",USA,"Berkeley, CA, USA",https://www.linkedin.com/in/gelobter/,37.871523,-122.273042,Leader,Leader,Leader
153,Gerrard,Michael Gerrard,Professor,Columbia University Law School,"New York, NY",USA,"New York, NY, USA",https://www.linkedin.com/in/michael-gerrard-534262131/,40.712775,-74.005973,Leader,Leader,Leader
154,Ghoneim,Rana Ghoneim,Chief of Energy Systems and Infrastructure Division,UNIDO,Vienna,Austria,"Vienna, Austria",https://www.linkedin.com/in/rana-ghoneim-1a5b4840/ ,48.208174,16.373819,Leader,Leader,Leader
155,Giradet,Herbert Giradet,Author; Co-Founder,World Future Council,Newport,United Kingdom,"Newport, United Kingdom",https://www.linkedin.com/in/herbert-girardet-a2853811/?originalSubdomain=uk,41.490102,-71.312828,Leader,Leader,Leader
156,Goldmann,Mattias Goldmann,Chief Sustainability Officer,Sweco,Stockholm,Sweden,"Stockholm, Sweden",https://www.linkedin.com/in/mattiasgoldmann/,59.329324,18.068581,Leader,Leader,Leader
157,Gonzalez,Luis Gonzalez,Director of Advocacy,Unidad Ecológica Salvadoreña,San Salvador,El Salvador,"San Salvador, El Salvador",https://twitter.com/unes_elsalvador?lang=en,13.69294,-89.218191,Leader,Leader,Leader
158,Gopal,Ajei Gopal,Chief Executive Officer,Ansys,"Pittsburgh, PA",USA,"Pittsburgh, PA, USA",https://www.linkedin.com/in/ajeigopal/,40.440625,-79.995886,Leader,Leader,Leader
159,Göpel,Maja Göpel,Director of Research,The New Institute,Berlin,Germany,"Berlin, Germany",https://twitter.com/beyond_ideology?lang=en,52.520007,13.404954,Leader,Leader,Leader
160,Gordon,Kate Gordon,Director,California Governor's Office of Planning and Research,"Berkeley, CA",USA,"Berkeley, CA, USA",https://www.linkedin.com/in/kategordonconsulting/,37.871523,-122.273042,Leader,Leader,Leader
161,Gore,Al Gore,Chairman,Generation Investment Management,"Nashville, TN",USA,"Nashville, TN, USA",https://www.algore.com/,36.162664,-86.781602,Leader,Leader,Leader
162,Goudreau,James Goudreau,Head of Climate,Novartis,"Boston, MA",USA,"Boston, MA, USA",https://www.linkedin.com/in/jamesgoudreau/,42.360082,-71.05888,Leader,Leader,Leader
163,Graber,Mauricio Graber,Chief Executive Officer,Chr. Hansen Holdings A/S,Copenhagen,Denmark,"Copenhagen, Denmark",https://www.linkedin.com/in/mauricio-graber/,55.676097,12.568337,Leader,Leader,Leader
164,Graves,Phil Graves,Chief Sustainability Officer: President,Bass Pro Shops; Johnny Morris Foundation,"Springfield, MS",USA,"Springfield, MS, USA",https://www.linkedin.com/in/phil-graves-1b993515/,37.208957,-93.292299,Leader,Leader,Leader
165,Gravitz,Alisa Gravitz,Chief Executive Officer,Green America,"Washington, DC",USA,"Washington, DC, USA",https://greenamerica.org/people/alisa-gravitz,38.907192,-77.036871,Leader,Leader,Leader
166,Grenier,Catherine Grenier,President and Chief Executive Officer,Nature Conservancy Canada,Quebec,Canada,"Quebec, Canada",https://www.linkedin.com/in/catherine-grenier-448278108/ ,46.813878,-71.207981,Leader,Leader,Leader
167,Groser,Tim Groser,Former Minister of Climate Change Issues ; Global Advisory Council,Government of New Zealand; TREELION Foundation,Wellington,New Zealand,"Wellington, New Zealand",https://www.linkedin.com/in/tim-groser-a35b9831/,-41.292381,174.778746,Leader,Leader,Leader
168,Grossman,Marianna Grossman,Founder and Managing Partner,Minerva Ventures,"Portland, OR",USA,"Portland, OR, USA",https://www.linkedin.com/in/mariannagrossman/,45.515232,-122.678385,Leader,Leader,Leader
169,Guajajara,Sônia Bone  Guajajara,Coordinator,Articulação dos Povos Indígenas do Brasil (APIB),São Luís,Brazil,"São Luís, Brazil",https://www.facebook.com/GuajajaraSonia/,-2.530672,-44.298895,Leader,Leader,Leader
170,Gudynas,Eduardo Gudynas,Director,Latin American Centre for Social Ecology,Montivideo,Uruguay,"Montivideo, Uruguay",https://greattransition.org/contributor/eduardo-gudynas,-34.901113,-56.164531,Leader,Leader,Leader
171,Guerra,Alexsandra Guerra,Co-Founder and Director of Corporate Development,Nori,"Seattle, WA",USA,"Seattle, WA, USA",https://www.linkedin.com/in/alexsandraguerra/,47.60621,-122.332071,Leader,Leader,Leader
172,Gupta,Ranjit  Gupta,Chief Executive Officer Azure power ,Azure power ,Delhi,India,"Delhi, India",https://www.linkedin.com/in/ranjit-gupta-98b351/,28.704059,77.10249,Leader,Leader,Leader
173,Gutiérrez,Juliana Gutiérrez,"Director, Co-Founder",Low Carbon City,Medellin,Colombia,"Medellin, Colombia",https://www.linkedin.com/in/julianagutierrezr/?originalSubdomain=co https://fellows.echoinggreen.org/fellow/juliana-gutierrez/,6.247638,-75.565815,Leader,Leader,Leader
174,Haass,Alexis Olans Haass,Chief Sustainability Officer,Arcadis,Munich,Germany,"Munich, Germany",https://www.linkedin.com/in/alexisolanshaass/?originalSubdomain=de,48.135125,11.58198,Leader,Leader,Leader
175,Halonen,Tarja Halonen,Former President of Finland (2000-2012),Republic of Finland,Helsinki,Finland,"Helsinki, Finland",https://twitter.com/TarjaHalonen?ref_src=twsrc%5Egoogle%7Ctwcamp%5Eserp%7Ctwgr%5Eauthor,60.169856,24.938379,Leader,Leader,Leader
176,Halvorsen,Kristin Halvorsen,Director,Center for International Climate Research,Oslo,Norway,"Oslo, Norway",https://twitter.com/kristin_klima?lang=en,59.913869,10.752245,Leader,Leader,Leader
177,Hammond,Brendan Hammond,Project Director at Asian Renewable Energy Hub,Asian Renewable Energy Hub,Perth,Australia,"Perth, Australia",https://www.linkedin.com/in/brendanhammond1/?originalSubdomain=au,-31.952312,115.861309,Leader,Leader,Leader
178,Hampton,Kate Hampton,Chief Executive Officer,Children's Investment Fund Foundation (CIFF),London,United Kingdom,"London, United Kingdom",https://www.linkedin.com/in/kate-hampton-932b3035/,51.507218,-0.127586,Leader,Leader,Leader
179,Hansen,James Hansen,"Adjunct Professor and Director of Climate Science, Awareness, and Solutions",Columbia University Earth Institute,"Palisades, NY",USA,"Palisades, NY, USA",https://www.earth.columbia.edu/users/profile/james-e-hansen,41.011308,-73.913293,Leader,Leader,Leader
180,Hart,Selwin Hart,Special Advisor and Assistant-Secretary General,Climate Action at United Nations,"Washington, DC",USA,"Washington, DC, USA",https://www.linkedin.com/in/selwin-hart-852080136/ ,38.907192,-77.036871,Leader,Leader,Leader
181,Hausfather,Zeke Hausfather,Director of Climate and Energy,The Breakthrough Institute,"San Francisco, CA",USA,"San Francisco, CA, USA",https://www.linkedin.com/in/zeke-hausfather-7327699/ ,37.77493,-122.419416,Leader,Leader,Leader
182,Hauter,Wenonah Hauter,Founder and Executive Director,Food and Water Watch,"Washington, DC",USA,"Washington, DC, USA",https://www.foodandwaterwatch.org/staff/board-of-directors/,38.907192,-77.036871,Leader,Leader,Leader
183,Hawken,Paul Hawken,Founder,"Project Drawdown, Project Regeneration","Sausalito, CA",USA,"Sausalito, CA, USA",http://www.paulhawken.com/,37.859094,-122.485251,Leader,Leader,Leader
184,Hayhoe,Katharine Hayhoe,Professor of Endowed Political Science and Director of Climate Center,Texas Tech University,"Lubbock, TX",USA,"Lubbock, TX, USA",https://www.linkedin.com/in/katharine-hayhoe/,33.577863,-101.855166,Leader,Leader,Leader
185,Hedegaard,Connie Hedegaard,Chair; Former EU Commissioner for Cliamte Action (2010-2014),Organisation for Economic Co-Operation and Development (OECD) Round Table on Sustainability Development,Copenhagen,Denmark,"Copenhagen, Denmark",https://conniehedegaard.com/,55.676097,12.568337,Leader,Leader,Leader
186,Heiny,Kate Heiny,Sustainability Director,Zalando SE,Brussels,Belgium,"Brussels, Belgium",https://www.linkedin.com/in/kateheiny/,50.847642,4.35717,Leader,Leader,Leader
187,Helias,Virginie Helias,Chief Sustainability Officer,Proctor and Gamble,Geneva,Switzerland,"Geneva, Switzerland",https://www.linkedin.com/in/virginiehelias/,46.204391,6.143158,Leader,Leader,Leader
188,Henriksen,Heather Henriksen,Chief Sustainability Officer,Harvard University,"Boston, MA",USA,"Boston, MA, USA",https://www.linkedin.com/in/heatherhenriksen/,42.360082,-71.05888,Leader,Leader,Leader
189,Henry,Don Henry,Enterprise Professor of Environmentalism at the Melbourne Sustainable Society Institute,University of Melbourne,Melbourne,Australia,"Melbourne, Australia",https://msd.unimelb.edu.au/about/our-people/academic/don-henry,-37.813628,144.963058,Leader,Leader,Leader
190,Hidayati,Nur Hidayati,Executive Director,Indonesian Forum for the Environment (Walhi),Jakarta,Indonesia,"Jakarta, Indonesia",https://www.linkedin.com/in/nur-hidayati-3048304a/,-6.208763,106.845599,Leader,Leader,Leader
191,Hirsi,Isra Hirsi,Cofounder and Co-Executive Director,US Youth Climate Strike,"Minneapolis, MN",USA,"Minneapolis, MN, USA",https://twitter.com/israhirsi?lang=en,44.977753,-93.265011,Leader,Leader,Leader
192,Hobley,Anthony Hobley,"Executive Director, Former Chief Executive Officer","Mission Possible Platform of World Economic Platform, Carbon Tracker Initiative",London,United Kingdom,"London, United Kingdom",https://www.linkedin.com/in/anthony-hobley/,51.507218,-0.127586,Leader,Leader,Leader
193,Hochschild,David Hochschild,Chair,California Energy Commission,"San Francisco, CA",USA,"San Francisco, CA, USA",https://www.linkedin.com/in/david-hochschild-1520106/,37.77493,-122.419416,Leader,Leader,Leader
194,Holmgren,Jennifer Holmgren,Chief Executive Officer,LanzaTech,"Skokie, IL",USA,"Skokie, IL, USA",https://www.linkedin.com/in/jennifer-holmgren-95b6201/,42.032402,-87.741625,Leader,Leader,Leader
195,Horton,Robert Horton,VP of Environmental Affairs and Sustainability,Dallas Fort Worth International Airport,"Irving, TX",USA,"Irving, TX, USA",https://www.linkedin.com/in/robert-horton/,32.814018,-96.948894,Leader,Leader,Leader
196,Horton,Daniele Horton,Founder and President,Verdani Partners,"San Diego, CA",USA,"San Diego, CA, USA",https://www.linkedin.com/in/danielehorton/,32.715738,-117.161084,Leader,Leader,Leader
197,Hsieh,Elaine Hsieh,Co-Founder,Third Derivative,"Oakland, CA",USA,"Oakland, CA, USA",https://www.linkedin.com/in/elaineishere/ ,37.804351,-122.271164,Leader,Leader,Leader
198,Hu,Kehua Hu,Director of Sustainability Stewardship,China National Textile and Apparel Council,Beijing,China,"Beijing, China",https://www.linkedin.com/in/kehua-hu-6936a43a/?originalSubdomain=cn,39.904211,116.407395,Leader,Leader,Leader
199,Huac,Vanessa Huac,Journalist; Co-Founder,Sachamama,"Miami, FL",USA,"Miami, FL, USA",https://twitter.com/vanessahauc?lang=en,25.76168,-80.19179,Leader,Leader,Leader
200,Hui,Yuming Hui,China Director,The Climate Group,Beijing,China,"Beijing, China",https://www.linkedin.com/in/yuming-hui-8066349/?originalSubdomain=cn,39.904211,116.407395,Leader,Leader,Leader
201,Hultman,Nathan Hultman,Founding Director of Center for Global Sustainability,University of Maryland,"Washington, DC",USA,"Washington, DC, USA",https://www.linkedin.com/in/nathan-hultman-223647/ ,38.907192,-77.036871,Leader,Leader,Leader
202,Hunter,Amy Hunter,Global Head of Sustainability,BlackRock,"San Francisco, CA",USA,"San Francisco, CA, USA",https://www.linkedin.com/in/amy-hunter-1307448/,37.77493,-122.419416,Leader,Leader,Leader
203,Hurst,Nate Hurst,President of Wells Fargo Foundation; Chief Social Impact and Sustainability Officer,Wells Fargo,"Washington, DC",USA,"Washington, DC, USA",https://www.linkedin.com/in/natehurst/,38.907192,-77.036871,Leader,Leader,Leader
204,Hynes,Evan Hynes,Co-Founder,Climatebase,"Berkeley, CA",USA,"Berkeley, CA, USA",https://www.linkedin.com/in/evanhynes/,37.871523,-122.273042,Leader,Leader,Leader
205,Ibrahim,Hindou Oumarou Ibrahim,President,Association for Indigenous Women and Peoples of Chad (AFPAT),N'Djamena,Chad,"N'Djamena, Chad",https://www.linkedin.com/in/hindou-oumarou-ibrahim-2ba22410/?originalSubdomain=td,12.134846,15.055742,Leader,Leader,Leader
206,Inamdar,Amar Inamdar,Managing Director,KawiSafi Ventures,Nairobi,Kenya,"Nairobi, Kenya",https://www.linkedin.com/in/amarinamdar/,-1.292066,36.821946,Leader,Leader,Leader
207,Ishii,Naoko Ishii,Former Chief Executive Officer,Global Environment Facility,Tokyo,Japan,"Tokyo, Japan",https://twitter.com/naokoishiitokyo?lang=en,35.676192,139.650311,Leader,Leader,Leader
208,Jackson,Lisa Jackson,"Vice President of Environment, Policy and Social Initiatives",Apple,"Cupertino, CA",USA,"Cupertino, CA, USA",https://www.apple.com/leadership/lisa-jackson/,37.322998,-122.032182,Leader,Leader,Leader
209,Jackson,Tim Jackson,Director,Centre for the Understanding of Sustainable Prosperity (CUSP),Guildford,United Kingdom,"Guildford, United Kingdom",https://www.linkedin.com/in/tim-jackson-0b86311b/?originalSubdomain=uk,51.23622,-0.570409,Leader,Leader,Leader
210,James,Christopher James,Founder & Executive Chairman,Engine No. 1,"San Francisco, CA",USA,"San Francisco, CA, USA",https://www.linkedin.com/company/engine-no-1/people/,37.77493,-122.419416,Leader,Leader,Leader
211,Jeng,Fatou Jeng,Founder,Clean Earth Gambia,Banjul,The Gambia,"Banjul, The Gambia",https://www.linkedin.com/in/fatou-jeng-605b8410b/detail/contact-info/,13.454375,-16.575319,Leader,Leader,Leader
212,Jenks,Brett Jenks,President and Chief Executive Officer,Rare,"Washington, DC",USA,"Washington, DC, USA",https://www.linkedin.com/in/brett-jenks-9200196/ ,38.907192,-77.036871,Leader,Leader,Leader
213,Johnson,David Johnson,Principal ,SERA Architects,"Oakland, CA",USA,"Oakland, CA, USA",https://www.linkedin.com/in/david-johnson-3a51495,37.804351,-122.271164,Leader,Leader,Leader
214,Johnson,Marilyn Johnson,Senior Director of Global Sustainability,Clarivate,"Seattle, WA",USA,"Seattle, WA, USA",https://www.linkedin.com/in/marilynajohnson/,47.60621,-122.332071,Leader,Leader,Leader
215,Johnson,Ayana Elizaeth Johnson,Co-Founder,Urban Ocean Lab,"Brooklyn, NY",USA,"Brooklyn, NY, USA",https://www.linkedin.com/in/ayanaelizabeth/,40.678178,-73.944158,Leader,Leader,Leader
216,Jones,Dave Jones,"Director, Climate Risk Initiative","Center for Law Energy & the Environment, UC Berkeley","Berkeley, CA",USA,"Berkeley, CA, USA",https://www.law.berkeley.edu/research/clee/about/people/dave-jones-2/,37.871523,-122.273042,Leader,Leader,Leader
217,Jones,Hannah Jones,Former Chief Sustainability Officer,Nike,"Portland, OR",USA,"Portland, OR, USA",https://www.linkedin.com/in/joneshannah/,45.515232,-122.678385,Leader,Leader,Leader
218,Joppa,Lucas Joppa,Chief Environmental Officer,Microsoft,"Redmond, WA",USA,"Redmond, WA, USA",https://www.linkedin.com/in/lucas-joppa/,47.673988,-122.121512,Leader,Leader,Leader
219,Kalvig,Siri M.  Kalvig,Chief Executive Officer,Nysnø Climate Investments,Stavanger,Norway,"Stavanger, Norway",https://www.linkedin.com/in/siri-m-kalvig-a17596b/,58.969976,5.733107,Leader,Leader,Leader
220,Kamkwamba,William Kamkwamba,Co-founder,Moving Windmills Project,Wimbe ,Malawi,"Wimbe , Malawi",https://twitter.com/wkamkwamba?lang=en,47.169714,-98.459818,Leader,Leader,Leader
221,Kammen,Daniel Kammen,Professor of Energy,UC Berkeley; Renewable and Appropriate Energy Lab,"Berkeley, CA",USA,"Berkeley, CA, USA",https://www.linkedin.com/in/daniel-kammen-4217346/ ,37.871523,-122.273042,Leader,Leader,Leader
222,Kampschroer,Kevin Kampschroer,Director; Chief Sustainability Officer,US General Services Administration,"Washington, DC",USA,"Washington, DC, USA",https://www.linkedin.com/in/kevinkampschroer/ ,38.907192,-77.036871,Leader,Leader,Leader
223,Karsner,Andy Karsner,Partner,Emerson Collective,"Palo Alto, CA",USA,"Palo Alto, CA, USA",https://www.linkedin.com/in/andy-karsner-3191952/,37.441883,-122.14302,Leader,Leader,Leader
224,Kauk,Stacy Kauk,Director of Sustainability Fund,Shopify,Ontario,Canada,"Ontario, Canada",https://www.linkedin.com/in/stacy-kauk-p-eng/,51.253775,-85.323214,Leader,Leader,Leader
225,Keijzer,Marie-Noëlle Keijzer,Co-Founder and Chief Executive Officer,WeForest,Antwerp,Belgium,"Antwerp, Belgium",https://www.linkedin.com/in/marie-no%C3%ABlle-keijzer-68089a2/,51.22134,4.405148,Leader,Leader,Leader
226,Kenderdine,Melanie Kenderdine,President,Energy Futures Initiative,"Washington, DC",USA,"Washington, DC, USA",https://www.linkedin.com/in/melanie-kenderdine-b13bb7bb/,38.907192,-77.036871,Leader,Leader,Leader
227,Kennedy,Danny Kennedy,Chief Energy Officer,New Energy Nexus,"Oakland, CA",USA,"Oakland, CA, USA",https://www.linkedin.com/in/kennedydanny/ ,37.804351,-122.271164,Leader,Leader,Leader
228,Keronen,Jouni Keronen,Executive Director,Climate Leadership Council,Porvoo,Finland,"Porvoo, Finland",https://www.linkedin.com/in/jouni-keronen-98385514a/,60.393192,25.665274,Leader,Leader,Leader
229,Kerry,John Kerry,Special Presidential Envoy for Climate,US Department of State,"Boston, MA",USA,"Boston, MA, USA",https://www.state.gov/biographies/john-kerry/,42.360082,-71.05888,Leader,Leader,Leader
230,Khan,Tessa Khan,Director,Uplift,London,United Kingdom,"London, United Kingdom",https://www.linkedin.com/in/tessa-khan-a42b6a48/?originalSubdomain=uk,51.507218,-0.127586,Leader,Leader,Leader
231,Khanh,Ngụy Thị Khanh,Executive,Green Innovation and Development Centre,Hanoi,Vietnam,"Hanoi, Vietnam",https://www.linkedin.com/in/nguy-khanh-12b806131/,21.027764,105.83416,Leader,Leader,Leader
232,Ki-Moon,Ban Ki-Moon,Former Secretary-General of the United Nations (8th),United Nations,Seoul,South Korea,"Seoul, South Korea",https://www.linkedin.com/in/bankimoon/,37.566535,126.977969,Leader,Leader,Leader
233,Kidney,Sean Kidney,Chief Executive Officer,Climate Bonds Initiative,London,United Kingdom,"London, United Kingdom",https://www.linkedin.com/in/seankidney/,51.507218,-0.127586,Leader,Leader,Leader
234,Kimmell,Kenneth Kimmell,Visiting Scholar/Former President,Northeastern University School of Public Policy and Urban Affairs/Union of Concerned Scientists,"Boston, MA",USA,"Boston, MA, USA",https://www.linkedin.com/in/ken-kimmell-b2046a12/,42.360082,-71.05888,Leader,Leader,Leader
235,Kind,Sebastian Kind,Chairman of the Board,GREENMAP,Brussels,Belgium,"Brussels, Belgium",https://www.linkedin.com/in/sebastiankind/?originalSubdomain=ar,50.847642,4.35717,Leader,Leader,Leader
236,Kliem,John Kliem,Director of Federal Energy Strategy; Former Executive Director of Resilient Energy Program Office,Johnson Controls; US Navy,"Washington, DC",USA,"Washington, DC, USA",https://www.linkedin.com/in/johnkliem/,38.907192,-77.036871,Leader,Leader,Leader
237,Kloberdanz,Kristina Kloberdanz,Chief Sustainability Officer,Mastercard,"New York, NY",USA,"New York, NY, USA",https://www.linkedin.com/in/kristina-kloberdanz-1446491/,40.712775,-74.005973,Leader,Leader,Leader
238,Kocher,Isabella Kocher,Former Chief Executive Officer,Engie,Paris,France,"Paris, France",https://www.linkedin.com/in/isabellekocher/,48.856614,2.352222,Leader,Leader,Leader
239,Komiyama,Hiroshi Komiyama,Chairman,Platinum Society Network,Tokyo,Japan,"Tokyo, Japan",https://www.linkedin.com/pulse/capitalism-coming-age-story-daisuke-tsuchiya/,35.676192,139.650311,Leader,Leader,Leader
240,Kortenhorst,Jules Kortenhorst,Chief Executive Officer,Rocky Mountain Institute (RMI),"Boulder, CO",USA,"Boulder, CO, USA",https://www.linkedin.com/in/juleskortenhorst/ ,40.014986,-105.270546,Leader,Leader,Leader
241,Kositratna,Nisakorn Kositratna,Vice Chairman,Thailand Environment Institute,Nonthaburi,Thailand,"Nonthaburi, Thailand",http://www.tei.or.th/th/executive.php,13.859108,100.521651,Leader,Leader,Leader
242,Kroll,Christian Kroll,Founder,Ecosia,Berlin,Germany,"Berlin, Germany",https://www.linkedin.com/in/christian-kroll-b2aa06b/,52.520007,13.404954,Leader,Leader,Leader
243,Krupp,Fred Krupp,President,Environmental Defense Fund,"New York, NY",USA,"New York, NY, USA","https://www.edf.org/people/fred-krupp
https://www.linkedin.com/in/fred-krupp-66310510a/",40.712775,-74.005973,Leader,Leader,Leader
244,Krut,Riva Krut,Former Vice President and Chief Sustainability Officer (retired); Board member and Chair of Sustainability & Innovation Committee,Linde; The Metals Company,"New York, NY",USA,"New York, NY, USA",https://www.linkedin.com/in/riva-krut-37377722/,40.712775,-74.005973,Leader,Leader,Leader
245,Kuenkel,Petra Kuenkel,Executive Director,Collective Leadership Institute,Berlin,Germany,"Berlin, Germany",https://www.linkedin.com/in/petra-kuenkel/,52.520007,13.404954,Leader,Leader,Leader
246,Kumar ,Emani Kumar,Chairman,Green growth Asia foundation,South Delhi,India,"South Delhi, India",https://www.linkedin.com/in/emani-kumar-93972616/?originalSubdomain=in,28.481655,77.187286,Leader,Leader,Leader
247,Kyte,Rachel Kyte,Dean; Former Chief Executive Officer,The Fletcher School at Tufts University; Sustainable Energy for All,"Medford, MA",USA,"Medford, MA, USA",https://www.linkedin.com/in/rachelkyte/,42.41843,-71.106164,Leader,Leader,Leader
248,La Camera,Francesco La Camera,Director-General,International Renewable Energy Agency (IRENA),Abu Dhabi,UAE,"Abu Dhabi, UAE",https://twitter.com/flacamera,24.453884,54.377344,Leader,Leader,Leader
249,Laasme-McQuilkin,Haly Laasme-McQuilkin,US Northeast Regional Representative Board of Directors; Governance Board of Directors,National Energy Assistance Director’s Association (NEADA); National Energy and Utility Affordability Coalition (NEUAC),"Dover, DE",USA,"Dover, DE, USA",https://www.linkedin.com/in/h%C3%A4ly-laasme-4415454/,39.158168,-75.524368,Leader,Leader,Leader
250,Lackner,Klaus Lackner,Director of the Center for Negative Carbon Emissions,Arizona State University,"Tempe, AZ",USA,"Tempe, AZ, USA",https://www.linkedin.com/in/klaus-lackner/,33.42551,-111.940005,Leader,Leader,Leader
251,Lacy,Rodolfo Lacy,Environmental Directorate,OECD,Paris,France,"Paris, France",https://www.linkedin.com/in/rodolfo-lacy-306b8bb2/,48.856614,2.352222,Leader,Leader,Leader
252,Lalich,Jeff Lalich,EHS for Global Service Center Operations,Rivian,"San Francisco, CA",USA,"San Francisco, CA, USA",https://www.linkedin.com/in/jefflalich/,37.77493,-122.419416,Leader,Leader,Leader
253,Landahl,Gustaf Landahl,Head of Department,City of Stockholm,Stockholm,Sweden,"Stockholm, Sweden",https://se.linkedin.com/in/gustaf-landahl-54132919,59.329324,18.068581,Leader,Leader,Leader
254,Landell-Mills,Natasha Landell-Mills,Head of Stewardship,Sarasin & Partners,London,United Kingdom,"London, United Kingdom",https://www.linkedin.com/in/natasha-landell-mills-cfa-05115935/,51.507218,-0.127586,Leader,Leader,Leader
255,Langworth,Anders Langworth,Founder,Bankers for Climate,Stockholm,Sweden,"Stockholm, Sweden",https://www.linkedin.com/in/anders-langworth-725422a/,59.329324,18.068581,Leader,Leader,Leader
256,Lanshina,Tatiana Lanshina,Former Chairperson,ReGeneration 2030,Moscow,Russia,"Moscow, Russia",https://www.linkedin.com/in/tatiana-lanshina-44bb2b61/?originalSubdomain=ru,55.755826,37.6173,Leader,Leader,Leader
257,Lao,Janice Lao,ESG Director,Helen of Troy,"El Paso, TX",USA,"El Paso, TX, USA",https://www.linkedin.com/in/janiceillao/,31.761878,-106.485022,Leader,Leader,Leader
258,Lee,Audrey Lee,Co-Chair,Clean Energy for Biden,"San Francisco, CA",USA,"San Francisco, CA, USA",https://www.linkedin.com/in/jaudreylee/ ,37.77493,-122.419416,Leader,Leader,Leader
259,Lee,Hoesung Lee,Chair of IPCC,Intergovernmental Panel on Climate Change,Seoul,South Korea,"Seoul, South Korea",https://www.linkedin.com/in/hoesung-lee-68792892/?originalSubdomain=kr,37.566535,126.977969,Leader,Leader,Leader
260,Leibowitz,Sandra Leibowitz,Founder and Owner,Sustainable Design Consulting,"Alexandria, VA",USA,"Alexandria, VA, USA",https://www.linkedin.com/in/sandra-leibowitz-6504b55/,38.804836,-77.046921,Leader,Leader,Leader
261,Leonard,Annie Leonard,Executive Director,Greenpeace USA,"Berkeley, CA",USA,"Berkeley, CA, USA",https://www.linkedin.com/in/annie-leonard-65a00333/,37.871523,-122.273042,Leader,Leader,Leader
262,Lever,Andrew Lever,Director of Policy and Innovation,Carbon Trust,Edinburgh,United Kingdom,"Edinburgh, United Kingdom",https://www.linkedin.com/in/andrew-lever-1a551a/,55.953252,-3.188267,Leader,Leader,Leader
263,Lim,Theresa Mundita Lim,Executive Director,Association of Southeast Asian Nations (ASEAN) Center for Biodiversity,Los Banos,Philippines,"Los Banos, Philippines",https://www.linkedin.com/in/theresa-mundita-lim-7322b321/?originalSubdomain=ph,37.058279,-120.849915,Leader,Leader,Leader
264,Lindsay,Donald Lindsay,Chief Executive Officer,Teck Resources,Vancouver,Canada,"Vancouver, Canada",https://www.linkedin.com/in/don-lindsay-01136926/?originalSubdomain=ca,49.282729,-123.120738,Leader,Leader,Leader
265,Lippert,Dawn Lippert,Chief Executive Officer,Elemental Excelerator,"Honolulu, Hawaii",USA,"Honolulu, Hawaii, USA",https://www.linkedin.com/in/dawnlippert/,21.306944,-157.858333,Leader,Leader,Leader
266,Liswani,Hilda Liswani,Founder and Chief Executive Officer,WeBloom,Zurich,Switzerland,"Zurich, Switzerland",https://www.linkedin.com/in/hilda-n-liswani-7952218a/,47.376887,8.541694,Leader,Leader,Leader
267,Logan-Riley,India Logan-Riley,Climate Activist,,Auckland,New Zealand,"Auckland, New Zealand",https://twitter.com/indimiro?lang=en,-36.850883,174.764488,Leader,Leader,Leader
268,Lores,Enrique Lores,Chief Executive Officer,Hewlett-Packard,"Los Altos, CA",USA,"Los Altos, CA, USA",https://www.linkedin.com/in/enriquelores/,37.385218,-122.11413,Leader,Leader,Leader
269,Lovins,Amory Lovins,Co-Founder and Chairman Emeritus,Rocky Mountain Institute (RMI),"Basalt, CO",USA,"Basalt, CO, USA",https://rmi.org/people/amory-lovins/,39.372481,-107.078501,Leader,Leader,Leader
270,Lovins,Hunter Lovins,President,Natural Capitalism Solutions,"Denver, CO",USA,"Denver, CO, USA",https://www.linkedin.com/in/hunterlovins/ ,39.739236,-104.990251,Leader,Leader,Leader
271,Lubber,Mindy Lubber,President and Chief Executive Officer,Ceres,"Boston, MA",USA,"Boston, MA, USA",https://www.linkedin.com/in/mindy-lubber-b113962/ ,42.360082,-71.05888,Leader,Leader,Leader
272,Lubchenco,Jane Lubchenco,Professor,Environmental (Marine) Sciences at Oregon State University,"Corvallis, OR",USA,"Corvallis, OR, USA",https://www.linkedin.com/in/jane-lubchenco-7794a2207/,44.564566,-123.262044,Leader,Leader,Leader
273,Mack,Clair Mack,Chief Executive,Scottish Renewables,Glasgow,United Kingdom,"Glasgow, United Kingdom",https://www.linkedin.com/in/claire-mack-50a93814/,55.864237,-4.251806,Leader,Leader,Leader
274,Mackie,Erica Mackie,Co-Founder and Chief Executive Officer,GRID Alternatives,"Oakland, CA",USA,"Oakland, CA, USA",https://www.linkedin.com/in/erica-mackie-9487539/ ,37.804351,-122.271164,Leader,Leader,Leader
275,Maclay,Bill Maclay,Founder and Principal,Maclay Architects,"Waitsfield, VT",USA,"Waitsfield, VT, USA",https://www.linkedin.com/in/bill-maclay-a89b352/,44.192639,-72.779848,Leader,Leader,Leader
276,MacNaughton,Joan MacNaughton,Executive Chair of the World Energy Trilemma,World Energy Council,London,United Kingdom,"London, United Kingdom",https://www.linkedin.com/in/joanmacnaughton/,51.507218,-0.127586,Leader,Leader,Leader
277,Makichyan,Arshak Makichyan,Climate Activist,,Moscow,Russia,"Moscow, Russia",https://twitter.com/MakichyanA?ref_src=twsrc%5Egoogle%7Ctwcamp%5Eserp%7Ctwgr%5Eauthor,55.755826,37.6173,Leader,Leader,Leader
278,Marcario,Rose Marcario,Former Chief Executive Officer,Patagonia,"Los Angeles, CA",USA,"Los Angeles, CA, USA",https://www.linkedin.com/in/rose-marcario-06703716/,34.052234,-118.243685,Leader,Leader,Leader
279,Marquez,Francia Marquez,2018 Goldman Prize Recipient,Goldman Environmental Prize,Cali,Colombia,"Cali, Colombia",https://twitter.com/franciamarquezm?lang=en,3.451647,-76.531985,Leader,Leader,Leader
280,Martinez Lozada,Esteban Martinez Lozada,Sustainability Director,Green Loop,Bogotá,Colombia,"Bogotá, Colombia",https://www.linkedin.com/in/emartinezl/?locale=es_ES,4.710989,-74.072092,Leader,Leader,Leader
281,Marvel,Kate Marvel,Associate Research Scientist,NASA Goddard Institute for Space Studies (NASA GISS),"New York, NY",USA,"New York, NY, USA",https://twitter.com/drkatemarvel?lang=en,40.712775,-74.005973,Leader,Leader,Leader
282,Matee,Nzambi Matee,Founder,Gjenge Makers,Nairobi,Kenya,"Nairobi, Kenya",https://www.linkedin.com/in/nzambi-matee-gjenge2017/?originalSubdomain=ke,-1.292066,36.821946,Leader,Leader,Leader
283,Mathai,Wanjira Mathai,Vice President and Regional Director,World Resources Institute (WRI),Nairobi,Kenya,"Nairobi, Kenya",https://twitter.com/mathaiwanjira?lang=en,-1.292066,36.821946,Leader,Leader,Leader
284,Mathur,Ajay Mathur,Director General,International Solar Alliance,New Delhi,India,"New Delhi, India",https://www.linkedin.com/in/international-solar-alliance/,28.613939,77.209021,Leader,Leader,Leader
285,Mazria,Ed Mazria,Chief Executive Officer,Architecture 2030,"Sante Fe, NM",USA,"Sante Fe, NM, USA",https://www.linkedin.com/in/edward-mazria-5b0117129/ ,35.686975,-105.937799,Leader,Leader,Leader
286,Mazzacurati,Emilie Mazzacurati,Global Head of Climate Solutions,Moody's Corporation,"Berkeley, CA",USA,"Berkeley, CA, USA",https://www.linkedin.com/in/emazzacurati/,37.871523,-122.273042,Leader,Leader,Leader
287,McCarthy,Gina McCarthy,National Climate Advisor; Former President,White House Office of Domestic Climate Policy; NRDC,"Boston, MA",USA,"Boston, MA, USA",https://www.nrdc.org/experts/gina-mccarthy,42.360082,-71.05888,Leader,Leader,Leader
288,McDonald,Jane McDonald,Executive Vice President,International Institute for Sustainable Development,Winnipeg,Canada,"Winnipeg, Canada",https://www.linkedin.com/in/jane-mcdonald-75695a66/ ,49.895136,-97.138374,Leader,Leader,Leader
289,McDonough,William McDonough,"Architect, Designer and Author","McDonough Innovation, William McDonough + Partners","Charlottesville, VA",USA,"Charlottesville, VA, USA",https://www.linkedin.com/in/william-mcdonough/,38.029306,-78.476678,Leader,Leader,Leader
290,McIntyre,Don McIntyre,Managing Director and Chief Executive Officer,Impact Metrics,"Washington, DC",USA,"Washington, DC, USA",https://www.linkedin.com/in/donmcintyre/,38.907192,-77.036871,Leader,Leader,Leader
291,McKibben,Bill McKibben,Author; Co-Founder,350.org,"Middlebury, VT",USA,"Middlebury, VT, USA",https://www.linkedin.com/in/bill-mckibben-6174131b7/,44.015337,-73.16734,Leader,Leader,Leader
292,McLaughlin,Kathleen McLaughlin,Chief Sustainability Officer,Walmart,"Bentonville, AR",USA,"Bentonville, AR, USA",https://www.linkedin.com/in/kathleenforgood/,36.372854,-94.208817,Leader,Leader,Leader
293,Mcunu,Ndoni Mcunu,Bilateral Engagement Lead,SouthSouthNorth,Johannesburg,South Africa,"Johannesburg, South Africa",https://www.linkedin.com/in/ndoni-mcunu-015bb68b/?originalSubdomain=za,-26.204103,28.047305,Leader,Leader,Leader
294,Meezan,Erin Meezan,VP and Chief Sustainability Officer,Interface,"Atlanta, GA",USA,"Atlanta, GA, USA",https://www.linkedin.com/in/erinmeezan/,33.748995,-84.387982,Leader,Leader,Leader
295,Mena,Marcelo Mena,"Former Environment Minister, Director","Climate Action Center at Pontificia Universidad Católica de Valparaíso, Chile Office of the Global Center on Adaptation",Santiago,Chile,"Santiago, Chile",https://www.linkedin.com/in/marcelo-mena-87a02914/?originalSubdomain=cl,-33.44889,-70.669266,Leader,Leader,Leader
296,Mendiluce,María Mendiluce,Chief Executive Officer,We Mean Business Coalition,Geneva,Switzerland,"Geneva, Switzerland",https://www.linkedin.com/in/mariamendiluce/,46.204391,6.143158,Leader,Leader,Leader
297,Merkel,Angela Merkel,Chancellor,Federal Republic of Germany,Berlin,Germany,"Berlin, Germany",https://www.bundeskanzlerin.de/bkin-en/angela-merkel/biography,52.520007,13.404954,Leader,Leader,Leader
298,Merkl,Andreas Merkl,Former President,Ocean Conservancy,"Washington, DC",USA,"Washington, DC, USA",https://www.linkedin.com/in/andreas-merkl-75449377/ ,38.907192,-77.036871,Leader,Leader,Leader
299,Meza Murillo,Andrea Meza Murillo,Minister of Environment and Energy ,Government of Costa Rica,San Jose,Costa Rica,"San Jose, Costa Rica",https://www.linkedin.com/in/andrea-meza-a9730875/?originalSubdomain=cr,37.338208,-121.886329,Leader,Leader,Leader
300,Miller,Christopher Miller,Activism Manager; Former Director of Sustainability,Ben and Jerry's; Seventh Generation,"Burlington, VA",USA,"Burlington, VA, USA",https://www.linkedin.com/in/christopher-miller-6bb5b215/,44.475882,-73.212072,Leader,Leader,Leader
301,Miner,Kimberly Miner,Earth and Climate Scientist,NASA,"Los Angeles, CA",USA,"Los Angeles, CA, USA",https://www.linkedin.com/in/drkimberleyminer/,34.052234,-118.243685,Leader,Leader,Leader
302,Moghadam,Hamid Moghadam,Chairman & Chief Executive Officer,Prologis,"San Francisco, CA",USA,"San Francisco, CA, USA",https://www.linkedin.com/in/hamid-moghadam-936026178/,37.77493,-122.419416,Leader,Leader,Leader
303,Moniz,Ernest Moniz,Former Secretary of Energy,US Department of Energy,"Washington, DC",USA,"Washington, DC, USA",https://www.linkedin.com/in/ernestmoniz/ ,38.907192,-77.036871,Leader,Leader,Leader
304,Morlet,Andrew Morlet,Chief Executive Officer,Ellen MacArthur Foundation,London,United Kingdom,"London, United Kingdom",https://www.linkedin.com/in/amorlet/,51.507218,-0.127586,Leader,Leader,Leader
305,Morningstar,Richard Morningstar,"Founding Chairman, Board Director","Global Energy Center, Atlantic Council","Washington, DC",USA,"Washington, DC, USA",https://www.albrightstonebridge.com/team/richard-morningstar,38.907192,-77.036871,Leader,Leader,Leader
306,Morris,Jennifer Morris,Chief Executive Officer; Former President,The Nature Conservancy; Conservation International,"Washington, DC",USA,"Washington, DC, USA",https://www.linkedin.com/in/jennifer-morris-934a426/ ,38.907192,-77.036871,Leader,Leader,Leader
307,Moses,Rebekah Moses,Director of Impact Strategy,Impossible Foods,"San Francisco, CA",USA,"San Francisco, CA, USA",https://www.linkedin.com/in/rebekahmoses/,37.77493,-122.419416,Leader,Leader,Leader
308,Mountbatten-Windsor,"HRH The Duke of Cambridge, William Mountbatten-Windsor",Founder,Earthshot Prize,London,United Kingdom,"London, United Kingdom",https://twitter.com/KensingtonRoyal?ref_src=twsrc%5Egoogle%7Ctwcamp%5Eserp%7Ctwgr%5Eauthor,51.507218,-0.127586,Leader,Leader,Leader
309,Muhoza,Rosette Muhoza,Co-founder,My Green Home,Kigali,Rwanda,"Kigali, Rwanda",http://mygreenhome.rw/,-1.944073,30.061885,Leader,Leader,Leader
310,Mumba,Musonda Mumba,Director,United Nations Environment Programme (UNEP),Nairobi,Kenya,"Nairobi, Kenya",https://www.linkedin.com/in/dr-musonda-mumba-aa09611/ ,-1.292066,36.821946,Leader,Leader,Leader
311,Mumgaard,Bob Mumgaard,Chief Executive Officer,Commonwealth Fusion Systems,"Boston, MA",USA,"Boston, MA, USA",https://www.linkedin.com/in/mumgaard/,42.360082,-71.05888,Leader,Leader,Leader
312,Muniri,Alhassan Baba Muniri,Co-Founder,Recycle Up! Ghana,Berlin,Germany,"Berlin, Germany",https://www.linkedin.com/in/alhassan-baba-muniru-46b55828/,52.520007,13.404954,Leader,Leader,Leader
313,Muñoz,Gonzalo Muñoz,High Level Climate Action Champion,COP25,Santiago,Chile,"Santiago, Chile",https://www.linkedin.com/in/gonzalomunozabogabir/ ,-33.44889,-70.669266,Leader,Leader,Leader
314,Muqeet,Abdul Muqeet,Activist (The Paper Bag Boy),,Abu Dhabi,UAE,"Abu Dhabi, UAE",https://www.instagram.com/thepaperbagboy/,24.453884,54.377344,Leader,Leader,Leader
315,Mutiso,Rose Mutiso,Research Director ,Enegy for Growth,Nairobi,Kenya,"Nairobi, Kenya",https://www.linkedin.com/in/rosemutiso/?originalSubdomain=ke,-1.292066,36.821946,Leader,Leader,Leader
316,Nakate,Vanessa Nakate,Founder,Rise Up Movement,Kampala,Uganda,"Kampala, Uganda",https://www.linkedin.com/in/vanessa-nakate-09156889/,0.347596,32.58252,Leader,Leader,Leader
317,Narain,Sunita Narain,Director General,Center for Science and Environment,Delhi,India,"Delhi, India",https://www.cseindia.org/page/sunita-narain,28.704059,77.10249,Leader,Leader,Leader
318,Nash,Brian Nash,Director of Sustainability,Ingredion Incorporated,"Indianapolis, IN",USA,"Indianapolis, IN, USA",https://www.linkedin.com/in/brian-nash-05a57842/,39.768403,-86.158068,Leader,Leader,Leader
319,Nath,Shloka Nath,Head of Sustainability and Special Projects,Tata Trusts,Mumbai,India,"Mumbai, India",https://www.linkedin.com/in/shlokanath/,19.075984,72.877656,Leader,Leader,Leader
320,Ndhlukula,Kudakwashe (Kuda) Ndhlukula,Executive Director,SADC Centre for Renewable Energy & Energy Efficiency (SACREEE),Harare,Zimbabwe,"Harare, Zimbabwe",https://www.linkedin.com/in/kudakwashe-kuda-ndhlukula-72420317/?miniProfileUrn=urn%3Ali%3Afs_miniProfile%3AACoAAANpYEwBu-pEk5gVbZM9OOgYA2lhW00TG5M,-17.821629,31.049226,Leader,Leader,Leader
321,Neff,Sarah Neff,Senior Vice President of Sustainability,Kilroy Realty Corporation,"Los Angeles, CA",USA,"Los Angeles, CA, USA",https://www.linkedin.com/in/sara-neff-4490b214/,34.052234,-118.243685,Leader,Leader,Leader
322,Nelsen,Chad Nelsen,Chief Executive Officer,Surfrider Foundation,"Orange County, CA",USA,"Orange County, CA, USA",https://www.linkedin.com/in/chadnelsen/#:~:targetText=Chad%20Nelsen%20%2D%20Chief%20Executive%20Officer%20%2D%20Surfrider%20Foundation%20%7C%20LinkedIn ,33.717471,-117.831143,Leader,Leader,Leader
323,Neubauer,Luisa Neubauer,Climate Activist,,Berlin,Germany,"Berlin, Germany",https://twitter.com/luisamneubauer?lang=en,52.520007,13.404954,Leader,Leader,Leader
324,Nick,Alexander Nick,Head of Sustainability Strategy and Management,BMW,Munich,Germany,"Munich, Germany",https://www.linkedin.com/in/alnick/,48.135125,11.58198,Leader,Leader,Leader
325,Nilsson,Måns  Nilsson,Executive Director,SEI,Stockholm,Sweden,"Stockholm, Sweden",https://www.linkedin.com/in/m%C3%A5ns-nilsson-b330925/?originalSubdomain=se,59.329324,18.068581,Leader,Leader,Leader
326,Nindi,Stephen  Nindi,Director General,National Land Use Planning Commission,Dar Es Salaam,Tanzania,"Dar Es Salaam, Tanzania",https://www.linkedin.com/in/stephen-nindi-41125724/?originalSubdomain=tz,-6.792354,39.208328,Leader,Leader,Leader
327,Njiru,Wawira Njiru,Founder and Executive Director,Food for Education,Nairobi,Kenya,"Nairobi, Kenya",https://twitter.com/wawiranjiru?lang=en,-1.292066,36.821946,Leader,Leader,Leader
328,Nnoli-Edozien,Ndidi Nnoli-Edozien,Chair,Circular Economy Innovation Partnership,Abuja,Nigeria,"Abuja, Nigeria",https://www.linkedin.com/in/dr-ndidi-nnoli-edozien-798649141/,9.076478,7.398574,Leader,Leader,Leader
329,Nobre,Antonio Nobre,Researcher,National Institute of Amazonian Research,São José dos Campos,Brazil,"São José dos Campos, Brazil",https://twitter.com/buscandoverdade?lang=en,-23.21984,-45.891566,Leader,Leader,Leader
330,Nooyi,Indra Nooyi,Former Chairman and Chief Executive Officer,PepsiCo,"New York, NY",USA,"New York, NY, USA",https://www.linkedin.com/in/indranooyi/,40.712775,-74.005973,Leader,Leader,Leader
331,O'Brien,Sean O'Brien,President and Chief Executive Officer,Nature Serve,"Arlington, VA",USA,"Arlington, VA, USA",https://www.linkedin.com/in/seanatnatureserve/,38.881621,-77.090981,Leader,Leader,Leader
332,O'Connor,Robert O'Connor,Partner,Wilson Sonsini Goodrich & Rosati,"Corte Madera, CA",USA,"Corte Madera, CA, USA",https://www.linkedin.com/in/robert-o-connor-bba68934/,37.925481,-122.527476,Leader,Leader,Leader
333,O'Mara,Collin O'Mara,President and Chief Executive Officer,National Wildlife Federation,"Reston, VA",USA,"Reston, VA, USA",https://www.linkedin.com/in/collin-o-mara-536ba76/,38.958631,-77.357003,Leader,Leader,Leader
334,O'Neill,Claire O'Neill,"Managing Director of Climate and Energy, Former President","World Business Council, COP series",London,United Kingdom,"London, United Kingdom",https://www.linkedin.com/in/clairefordevizes/,51.507218,-0.127586,Leader,Leader,Leader
335,Ogunbiyi,Damilola Ogunbiyi,Chief Executive Officer and Special Representative; Co-Chair,UN SRSG for Sustainable Energy for All; UN-Energy,Vienna,Austria,"Vienna, Austria",https://www.linkedin.com/in/damilola-ogunbiyi/,48.208174,16.373819,Leader,Leader,Leader
336,Ojiambo,Sanda Ojiambo,Executive Director,United Nations Global Compact,Nairobi,Kenya,"Nairobi, Kenya",https://www.linkedin.com/in/sandaojiambo/ ,-1.292066,36.821946,Leader,Leader,Leader
337,Okonjo-Iweala,Ngozi Okonjo-Iweala,Director-General,World Trade Organization (WTO),Ogwashi Ukwu,Nigeria,"Ogwashi Ukwu, Nigeria",https://twitter.com/NOIweala?ref_src=twsrc%5Egoogle%7Ctwcamp%5Eserp%7Ctwgr%5Eauthor,6.181614,6.53031,Leader,Leader,Leader
338,Okonkwo,Salma  Okonkwo,Chairwoman,UBI Group,Accra,Ghana,"Accra, Ghana",https://www.linkedin.com/in/salma-okonkwo-a5171b1aa/,5.603717,-0.186964,Leader,Leader,Leader
339,Okoroafor,Michael Okoroafor,VP of Global Sustainability and Packaging Innovation,McCormick & Company,"Hunt Valley, MD",USA,"Hunt Valley, MD, USA",https://www.linkedin.com/in/michael-okoroafor-ph-d-5a07b9a9/,39.490001,-76.658507,Leader,Leader,Leader
340,Ortega,Cindy Ortega,Founder and Chief Executive Officer,Blue Heron Strategies,"Las Vegas, NV",USA,"Las Vegas, NV, USA",https://www.linkedin.com/in/cindy-ortega-38642898/,36.169941,-115.13983,Leader,Leader,Leader
341,Otto,Michael Otto,Chairman of the Supervisory Board,The Otto Group,Hamburg,Germany,"Hamburg, Germany",https://www.clubofrome.org/member/otto-michael/,53.551085,9.993682,Leader,Leader,Leader
342,Ould-Dada,Zitouni Ould-Dada,"Deputy Director of Climate Change, Biodiversity, and Environment",Food and Agriculture Organization of the United States,Paris,France,"Paris, France",https://www.linkedin.com/in/zitouni-ould-dada-71170543/,48.856614,2.352222,Leader,Leader,Leader
343,Oxender,Monique Oxender,Chief Sustainability Officer,Keurig Dr. Pepper,"Burlington, MA",USA,"Burlington, MA, USA",https://www.linkedin.com/in/moniqueoxender/,42.504716,-71.19562,Leader,Leader,Leader
344,Ozturkeri,Goksenin Ozturkeri,Vice President,CohnReznick Capital,"San Francisco, CA",USA,"San Francisco, CA, USA",https://www.linkedin.com/in/gozturkeri/,37.77493,-122.419416,Leader,Leader,Leader
345,Pagitsas,Chrissa Pagitsas,Former VP and Head of ESG,Fannie Mae,"Washington, DC",USA,"Washington, DC, USA",https://www.linkedin.com/in/chrissa-pagitsas/,38.907192,-77.036871,Leader,Leader,Leader
346,Palmieri,Edward Palmieri,Director of Global Sustainability,Facebook,"Washington, DC",USA,"Washington, DC, USA",https://www.linkedin.com/in/ejpalmieri/,38.907192,-77.036871,Leader,Leader,Leader
347,Palt,Alexandra Palt,Executive Vice President and Chief Sustainability Officer,L'Oreal,Paris,France,"Paris, France",https://www.linkedin.com/in/alexandra-palt-953133a/,48.856614,2.352222,Leader,Leader,Leader
348,Pandey,Ridhima Pandey,Climate Activist,,Haridwar,India,"Haridwar, India",https://twitter.com/ridhimapandey7?lang=en,29.945691,78.164248,Leader,Leader,Leader
349,Parikh,Jyoti Parikh,Executive Director,Integrated Research and Action for Development,South Delhi,India,"South Delhi, India",https://www.linkedin.com/in/jyoti-parikh-25b1707/,28.481655,77.187286,Leader,Leader,Leader
350,Pendragon,Carl Pendragon,Founder and Chief Executive Officer,Skymining,Stockholm,Sweden,"Stockholm, Sweden",https://www.linkedin.com/in/carl-pendragon-b4212a68/,59.329324,18.068581,Leader,Leader,Leader
351,Perez,Bea Perez,Senior Vice President and Sustainability Officer,Coca-Cola Company,"Decatur, GA",USA,"Decatur, GA, USA",https://www.linkedin.com/in/bea-perez-8225919/,33.774828,-84.296312,Leader,Leader,Leader
352,"Pérez, Jr.","Vincent Pérez, Jr.",Chairman; Former Secretary,Alternergy and Solar Pacific; Philippine Department of Energy,Manila,Philippines,"Manila, Philippines",https://www.linkedin.com/in/vince-s-perez-1287968/?originalSubdomain=ph,14.599512,120.98422,Leader,Leader,Leader
353,Perkins,Lewis Perkins,President,Apparel Impact Institute,"San Francisco, CA",USA,"San Francisco, CA, USA",https://www.linkedin.com/in/lewisbperkins/,37.77493,-122.419416,Leader,Leader,Leader
354,Perry,Charles Perry,"Special Projects and Aviation, High Level Climate Champion","Sustainable Future for All, COP26",London,United Kingdom,"London, United Kingdom",https://www.linkedin.com/in/charles-perry-3742932/,51.507218,-0.127586,Leader,Leader,Leader
355,Peters,Jonas C. Peters,"Director of Resnick Sustainability Institute, Bren Professor of Chemistry",Caltech,"Pasadena, CA",USA,"Pasadena, CA, USA",https://www.cce.caltech.edu/people/jonas-c-peters,34.147785,-118.144516,Leader,Leader,Leader
356,Pfund,Nancy Pfund,Founder and Managing Partner,DBL Ventures,"San Francisco, CA",USA,"San Francisco, CA, USA",https://www.linkedin.com/in/nancy-pfund-30b6ab13/,37.77493,-122.419416,Leader,Leader,Leader
357,Pica,Erich Pica,President,Friends of the Earth,"Washington, DC",USA,"Washington, DC, USA","https://foe.org/about-us/our-team/
https://www.linkedin.com/in/erich-pica-4b84011a/",38.907192,-77.036871,Leader,Leader,Leader
358,Piccard,Bertrand Piccard,Chairman,Solar Impulse Foundation,Vaud,Switzerland,"Vaud, Switzerland",https://www.linkedin.com/in/bertrandpiccard/,46.561314,6.536765,Leader,Leader,Leader
359,Polman,Paul Polman,"Former Chief Executive Officer, Co-Founder","Unilever, Imagine",London,United Kingdom,"London, United Kingdom",https://www.linkedin.com/in/paulpolman/,51.507218,-0.127586,Leader,Leader,Leader
360,Poulsen,Henrik Poulsen,Chief Executive Officer,Ørsted,Copenhagen,Denmark,"Copenhagen, Denmark",https://www.linkedin.com/in/henrik-poulsen-155b22189/,55.676097,12.568337,Leader,Leader,Leader
361,Prakash,Varshini Prakash,"Co-founder, Executive Director",Sunrise Movement,"Boston, MA",USA,"Boston, MA, USA",https://twitter.com/VarshPrakash?ref_src=twsrc%5Egoogle%7Ctwcamp%5Eserp%7Ctwgr%5Eauthor,42.360082,-71.05888,Leader,Leader,Leader
362,Pulgar-Vidal,Manuel Pulgar-Vidal,Global Leader of Climate & Energy,World Wildlife Fund (WWF),Lima,Peru,"Lima, Peru",https://www.linkedin.com/in/manuel-pulgar-vidal-68447b13/ ,-12.046373,-77.042754,Leader,Leader,Leader
363,Qian,Dany Qian,Global Vice President,Jinko Solar,Shanghai,China,"Shanghai, China",https://www.linkedin.com/in/晶-钱-b77039166/?originalSubdomain=cn,31.230416,121.473701,Leader,Leader,Leader
364,Quaschning,Volker Quaschning,Professor of Renewable Energy Systems,NTW Berlin,Berlin,Germany,"Berlin, Germany",https://www.linkedin.com/in/quaschning/?originalSubdomain=de,52.520007,13.404954,Leader,Leader,Leader
365,Rabinovitch,Kevin Rabinovitch,"Global VP, Sustainability and Chief Climate Officer","Mars, Inc.","Mclean, VA",USA,"Mclean, VA, USA",https://www.linkedin.com/in/kevin-rabinovitch-4280735/,38.933868,-77.17726,Leader,Leader,Leader
366,Ramanujam,Mahesh Ramanujam,President and Chief Executive Officer,US Green Building Council,"Washington, DC",USA,"Washington, DC, USA",https://www.linkedin.com/in/mahesh-ramanujam-a95a85a/,38.907192,-77.036871,Leader,Leader,Leader
367,Rasyid,Yasmin Rasyid,Founder/President,EcoKnights,Kuala Lumpur,Malaysia,"Kuala Lumpur, Malaysia",https://www.linkedin.com/in/yasminrasyid/,3.139003,101.686855,Leader,Leader,Leader
368,Ravenel,Curtis Ravenel,"Finance Advisor, Senior Advisor to Mark Carney",COP26 ,"New York, NY",USA,"New York, NY, USA",https://www.linkedin.com/in/curtis-ravenel/,40.712775,-74.005973,Leader,Leader,Leader
369,Raworth,Kate Raworth,Author; Senior Research Associate; Professor of Practice,Doughnut Economics; Oxford University’s Environmental Change Institute; Amsterdam University of Applied Sciences,Oxford,United Kingdom,"Oxford, United Kingdom",https://www.kateraworth.com/about/,51.754816,-1.254367,Leader,Leader,Leader
370,Razzouk,Assaad Razzouk,Chief Executive Officer at Gurīn Energy,Gurīn Energy,Singapore,Singapore,"Singapore, Singapore",https://www.linkedin.com/in/assaadrazzouk/,1.352083,103.819836,Leader,Leader,Leader
371,Reames,Tony Reames,Assistant Professor of Energy Justice,School for Environment and Sustainability at the University of Michigan,"Ann Arbor, MI",USA,"Ann Arbor, MI, USA",https://www.linkedin.com/in/tonygreames/,42.280826,-83.743038,Leader,Leader,Leader
372,Rijsberman,Frank Rijsberman,Director General,Global Green Growth Institute,Seoul,South Korea,"Seoul, South Korea",https://www.linkedin.com/in/frank-rijsberman-17841014/,37.566535,126.977969,Leader,Leader,Leader
373,Roberts,Carter Roberts,President and Chief Executive Officer,World Wildlife Fund (WWF),"Washington, DC",USA,"Washington, DC, USA",https://www.linkedin.com/in/carter-roberts-09879331/,38.907192,-77.036871,Leader,Leader,Leader
374,Robertson,Gregor Robertson,"Former Mayor of Vancouver, Global Ambassador",Global Covenant of Mayors for Climate and Energy,Vancouver,Canada,"Vancouver, Canada",https://www.linkedin.com/in/gregor-robertson/?originalSubdomain=ca ,49.282729,-123.120738,Leader,Leader,Leader
375,Roche,Vincent Roche,President and Chief Executive Officer,Analog Devices,"Norwood, MA",USA,"Norwood, MA, USA",https://www.analog.com/en/about-adi/corporate-information/executive-team/vincent-roche.html,42.194391,-71.19897,Leader,Leader,Leader
376,Rodriguez,Carlos Manuel Rodriguez,Chief Executive Officer and Chairperson,Global Environment Facility,San Jose,Costa Rica,"San Jose, Costa Rica",https://www.linkedin.com/in/carlos-manuel-rodriguez-7442581b6/ ,37.338208,-121.886329,Leader,Leader,Leader
377,Rodriguez Acha,Majandra Rodriguez Acha,Co-founder,TierrActiva Peru,Lima,Peru,"Lima, Peru",https://twitter.com/majandrraa?lang=en,-12.046373,-77.042754,Leader,Leader,Leader
378,Rozza,Joe Rozza,Director of Sustainability and Resilience,Jacobs,"Atlanta, GA",USA,"Atlanta, GA, USA",https://www.linkedin.com/in/joe-rozza-a8143b12/,33.748995,-84.387982,Leader,Leader,Leader
379,Rucker,Michael Rucker,Chief Executive Officer and Founder,Scout Clean Energy,"Boulder, CO",USA,"Boulder, CO, USA",https://www.linkedin.com/in/michaelwrucker/,40.014986,-105.270546,Leader,Leader,Leader
380,Rukavina,Frank Rukavina,President and Senior Advisor,Sustainable Innovations Operative,"Denver, CO",USA,"Denver, CO, USA",https://www.linkedin.com/in/frank-rukavina/,39.739236,-104.990251,Leader,Leader,Leader
381,Sachs,Jeffrey Sachs,Director,Columbia Center on Sustainable Development,"New York, NY",USA,"New York, NY, USA",https://www.linkedin.com/in/jeffrey-sachs-7494689a/,40.712775,-74.005973,Leader,Leader,Leader
382,Saltvedt,Thina Margreth Saltvedt,"Senior Advisor, Sustainable Finance",Nordea Bank,Oslo,Norway,"Oslo, Norway",https://www.linkedin.com/in/thina-margrethe-saltvedt-8163711/,59.913869,10.752245,Leader,Leader,Leader
383,Samper,Cristian Samper,President and Chief Executive Officer,Wildlife Conservation Society,"New York, NY",USA,"New York, NY, USA",https://www.linkedin.com/in/cristian-samper-970898114/,40.712775,-74.005973,Leader,Leader,Leader
384,Sanchez,Viviana Alvarez Sanchez,Head of Sustainability,North America Unilever ,"New York, NY",USA,"New York, NY, USA",https://www.linkedin.com/in/viviana-alvarez-sanchez-6a21b43a/,40.712775,-74.005973,Leader,Leader,Leader
385,Sanchez,Alvaro Sanchez,Environmental Equity Director,The Greenlining Institute,"San Francisco, CA",USA,"San Francisco, CA, USA",https://www.linkedin.com/in/alvarossanchez/,37.77493,-122.419416,Leader,Leader,Leader
386,Sanjayan,M. Sanjayan,Chief Executive Officer,Conservation International,"Arlington, VA",USA,"Arlington, VA, USA",https://www.linkedin.com/in/m-sanjayan-7a9593b4/ ,38.881621,-77.090981,Leader,Leader,Leader
387,Saunders,Tedd Saunders,Founder and Chief Executive Officer,EcoLogical Solutions,"Boston, MA",USA,"Boston, MA, USA",https://www.linkedin.com/in/tedd-saunders-a883a51/,42.360082,-71.05888,Leader,Leader,Leader
388,Scatasta,Monica Scatasta,"Director, Former Head of Division, Climate, Environment, and Social Policy","Council of Europe Development Bank, European Investment Bank",Luxembourg,Luxembourg,"Luxembourg, Luxembourg",https://www.linkedin.com/in/monica-scatasta-b66089a/,49.815273,6.129583,Leader,Leader,Leader
389,Schauble,Barney Schauble,"Head of Labs, Chairman; Director and Chair",Nephila Climate; Ceres,"Larkspur, CA",USA,"Larkspur, CA, USA",https://www.linkedin.com/in/bschauble/,37.934092,-122.535254,Leader,Leader,Leader
390,Schellnhuber,Hans Joachim Schellnhuber,Founding Director,The Potsdam Institute for Climate Impact Research,Potsdam,Germany,"Potsdam, Germany",https://twitter.com/PIK_Climate?ref_src=twsrc%5Egoogle%7Ctwcamp%5Eserp%7Ctwgr%5Eauthor,52.390569,13.064473,Leader,Leader,Leader
391,Schrag,Daniel Schrag,Director of the Harvard University Center for the Environment.,Harvard University,"Cambridge, MA",USA,"Cambridge, MA, USA",https://www.linkedin.com/in/daniel-schrag-6775b58/,42.373616,-71.109734,Leader,Leader,Leader
392,Schueller,Gayle Schueller,Vice President and Chief Sustainability Officer,3M,"Minneapolis, MN",USA,"Minneapolis, MN, USA",https://www.linkedin.com/in/gayleschueller/,44.977753,-93.265011,Leader,Leader,Leader
393,Schwab,Klaus Schwab,Founder and Executive Chairman,World Economic Forum,Geneva,Switzerland,"Geneva, Switzerland",https://www.linkedin.com/in/klaus-schwab-80b285200/,46.204391,6.143158,Leader,Leader,Leader
394,Schwartz,Daniel Schwartz,Director of Clean Energy Institute,University of Washington,"Seattle, WA",USA,"Seattle, WA, USA",https://www.linkedin.com/in/dt-schwartz/,47.60621,-122.332071,Leader,Leader,Leader
395,Selzer,Larry Selzer,President and Chief Executive Officer,The Conservation Fund,"Arlington, VA",USA,"Arlington, VA, USA","https://www.conservationfund.org/our-experts/larry-selzer
https://www.linkedin.com/in/larry-selzer-b243239/ ",38.881621,-77.090981,Leader,Leader,Leader
396,Shah,Aniket Shah,Senior Advisor for Sustainable Finance,UN Sustainable Development Solutions Network,"New York, NY",USA,"New York, NY, USA",https://www.linkedin.com/in/aniket-shah-phd-360a3635/ ,40.712775,-74.005973,Leader,Leader,Leader
397,Shahnaz,Durreen Shahnaz,Founder and Chief Executive Officer,Impact Investment Exchange,Singapore,Singapore,"Singapore, Singapore",https://www.linkedin.com/in/durreenshahnaz/,1.352083,103.819836,Leader,Leader,Leader
398,Sharpe,Vicky Sharpe,Member Board of Directors; Former President and Chief Executive Officer,EfficiencyOne; Sustainable Development Technology Canada,Nova Scotia,Canada,"Nova Scotia, Canada",https://www.linkedin.com/in/vicky-sharpe-3b584051/ ,44.681987,-63.744311,Leader,Leader,Leader
399,Sharpless,Andrew Sharpless,Chief Executive Officer,Oceana,"Washington, DC",USA,"Washington, DC, USA",https://www.linkedin.com/in/andrew-sharpless-8844a4b/,38.907192,-77.036871,Leader,Leader,Leader
400,Shellenberger,Michael Shellenberger,President; Former President,Environmental Progress; The Breakthrough Institute,"Berkeley, CA",USA,"Berkeley, CA, USA",https://www.linkedin.com/in/michael-shellenberger-019631a8/ ,37.871523,-122.273042,Leader,Leader,Leader
401,Shelton,Suzanne Shelton,President and Chief Executive Officer,Shelton Group,"Knoxville, TN",USA,"Knoxville, TN, USA",https://www.linkedin.com/in/suzanneshelton/,35.960638,-83.920739,Leader,Leader,Leader
402,Shiva,Vandana Shiva,Founding Member,World Future Council,New Delhi,India,"New Delhi, India",https://twitter.com/drvandanashiva?ref_src=twsrc%5Egoogle%7Ctwcamp%5Eserp%7Ctwgr%5Eauthor,28.613939,77.209021,Leader,Leader,Leader
403,Shrivastava,Paul Shrivastava,Chief Sustainability Officer,Sustainability Institute at Penn State,"State College, PA",USA,"State College, PA, USA",https://directory.smeal.psu.edu/pxs993,40.793395,-77.860001,Leader,Leader,Leader
404,Shuckburgh,Emily Shuckburgh,Director,Cambridge Zero at University of Cambridge,Cambridge,United Kingdom,"Cambridge, United Kingdom",https://www.linkedin.com/in/emily-shuckburgh-01750a4/,52.205337,0.121817,Leader,Leader,Leader
405,Silberman,Jennifer Silberman,VP of ESG,YETI,"Washington, DC",USA,"Washington, DC, USA",https://www.linkedin.com/in/jennifer-silberman-3b40492/,38.907192,-77.036871,Leader,Leader,Leader
406,Silva Villanueva,Alicia Silva Villanueva,Founder and Chief Executive Officer,Revitaliza Consultores,Mexico City,Mexico,"Mexico City, Mexico",https://www.linkedin.com/in/aliciasilvasynergy/,19.432608,-99.133208,Leader,Leader,Leader
407,Simpson,Anne Simpson,Managing Investment Director for Board Governance and Sustainability,CalPERS,"Sacramento, CA",USA,"Sacramento, CA, USA",https://www.linkedin.com/in/anne-simpson-a3024328/,38.581572,-121.4944,Leader,Leader,Leader
408,Simpson,Paul Simpson,Chief Executive Officer,CDP,London,United Kingdom,"London, United Kingdom",https://www.linkedin.com/in/paulsimpsoncdp/,51.507218,-0.127586,Leader,Leader,Leader
409,Simson,Kadri Simson,Commissioner for Energy,European Union,Estonia,Estonia,"Estonia, Estonia",https://twitter.com/KadriSimson?ref_src=twsrc%5Egoogle%7Ctwcamp%5Eserp%7Ctwgr%5Eauthor,58.595272,25.013607,Leader,Leader,Leader
410,Singh,Inesh Singh,Chief Sustainability Officer,Sula Vineyards,Haryana,India,"Haryana, India",https://www.linkedin.com/in/ineshsingh/,29.058776,76.085601,Leader,Leader,Leader
411,Sisson,William Sisson,Executive Director,World Business Council for Sustainable Development,"Avon, CT",USA,"Avon, CT, USA",https://www.linkedin.com/in/wsissonwbcsd/,41.80962,-72.830515,Leader,Leader,Leader
412,Sivaram,Varun Sivaram,Senior Director for Clean Energy & Innovation,US Special Presidential Envoy for Climate,"Washington, DC",USA,"Washington, DC, USA",https://www.linkedin.com/in/varunsivaram/,38.907192,-77.036871,Leader,Leader,Leader
413,Skarheim Onsum,Astrid Skarheim Onsum,Chief Executive Officer,Norsk Gjenvinning,Oslo,Norway,"Oslo, Norway",https://www.linkedin.com/in/astrid-skarheim-onsum-7a34b01/,59.913869,10.752245,Leader,Leader,Leader
414,Skea,Jim Skea,Professor of Sustainable Energy,Imperial College London,London,United Kingdom,"London, United Kingdom",https://www.imperial.ac.uk/people/j.skea,51.507218,-0.127586,Leader,Leader,Leader
415,Skinner,Scott Skinner,President and Chief Executive Officer,Clean Foundation,Nova Scotia,Canada,"Nova Scotia, Canada",https://www.linkedin.com/in/scott-skinner-8369011/ ,44.681987,-63.744311,Leader,Leader,Leader
416,Skone,Timothy  Skone,Senior Environmental Engineer,"US Department of Energy, National Energy Technology Labratory","Irwin, PA",USA,"Irwin, PA, USA",https://www.linkedin.com/in/timothy-skone-b3578479/,40.324514,-79.701155,Leader,Leader,Leader
417,Smith,Valerie Smith,Chief Sustainability Officer,CitiBank,"New York, NY",USA,"New York, NY, USA",https://www.linkedin.com/in/valerie-smith-98aa326/,40.712775,-74.005973,Leader,Leader,Leader
418,Smith,Andrew Smith,"Sr. Manager, Global Energy Management and Sustainability",Cisco,"Boulder, CO",USA,"Boulder, CO, USA",https://www.linkedin.com/in/andrew-smith-94ba585/,40.014986,-105.270546,Leader,Leader,Leader
419,Smith,Alwyn  Smith,Chairman,Southern African Alternative Energy Association (SAAEA),Johannesburg,South Africa,"Johannesburg, South Africa",https://www.linkedin.com/in/saaea/,-26.204103,28.047305,Leader,Leader,Leader
420,Smith,Bren Smith,Co-Executive Director and Co-Founder,GreenWave,"Long Island Sound, CT",USA,"Long Island Sound, CT, USA",https://www.greenwave.org/team ,41.074845,-72.946057,Leader,Leader,Leader
421,Smith,Merran Smith,Executive Director,Clean Energy Canada,Victoria,Canada,"Victoria, Canada",https://www.linkedin.com/in/merran-smith-64603b63/ ,48.428421,-123.365644,Leader,Leader,Leader
422,Sokona,Youba Sokona,Coordinator of the African Climate Policy Centre,United Nations Economic Commission for Africa (UNECA),Bamako,Mali,"Bamako, Mali",https://www.linkedin.com/in/youba-sokona-01b1b721/,12.639232,-8.002889,Leader,Leader,Leader
423,Soni,Preeti Soni,"Chief of Climate Change, Resilience, and Energy",United Nations Development Programme (UNDP),Delhi,India,"Delhi, India",https://www.linkedin.com/in/preeti-soni-917b667/,28.704059,77.10249,Leader,Leader,Leader
424,Souris,Dominique Souris,Co-Founder and Executive Director,Youth Climate Lab,Ontario,Canada,"Ontario, Canada",https://www.linkedin.com/in/dominiquesouris/ ,51.253775,-85.323214,Leader,Leader,Leader
425,Spade,Katrina Spade,Founder and Chief Executive Officer,Recompose,"Seattle, WA",USA,"Seattle, WA, USA",https://www.linkedin.com/in/katrina-spade-37047439/,47.60621,-122.332071,Leader,Leader,Leader
426,Sridhar,Kaushik Sridhar,Group Manager of Social Responsibility and ESG Reporting,Evolution Mining,Sydney,Australia,"Sydney, Australia",https://www.linkedin.com/in/kaushiksridhar83/,-33.86882,151.209296,Leader,Leader,Leader
427,Srivastava,Kushagra  Srivastava,Chief Executive Officer,Chakr Innovation,Delhi,India,"Delhi, India",https://www.linkedin.com/in/kushagra-srivastava-b68b2787/,28.704059,77.10249,Leader,Leader,Leader
428,St. Clair,Matt St. Clair,Director of Sustainability,University of California - Office of the President,"Oakland, CA",USA,"Oakland, CA, USA",https://www.linkedin.com/in/matt-st-clair-e-mail-6186b0/,37.804351,-122.271164,Leader,Leader,Leader
429,Stark,Chris Stark,Chief Ececutive,UK's Climate Change Committee (CCC),London,United Kingdom,"London, United Kingdom",https://www.linkedin.com/in/chris-stark-06b21a30/?originalSubdomain=uk,51.507218,-0.127586,Leader,Leader,Leader
430,Steffen,Will Steffen,Councillor,Climate Council of Australia,Canberra,Australia,"Canberra, Australia",https://www.linkedin.com/in/will-steffen-92990514/?originalSubdomain=au,-35.280937,149.130009,Leader,Leader,Leader
431,Stewart,Emma Stewart,Chief Sustainability Officer,Netflix,"San Francisco, CA",USA,"San Francisco, CA, USA",https://www.linkedin.com/in/emmastewart/,37.77493,-122.419416,Leader,Leader,Leader
432,Steyer,Tom Steyer,Founder,NextGen America,"San Francisco, CA",USA,"San Francisco, CA, USA",https://www.linkedin.com/in/tomsteyer/,37.77493,-122.419416,Leader,Leader,Leader
433,Straubel,JB Straubel,Chief Executive Officer,Redwood Materials,"Carson City, NV",USA,"Carson City, NV, USA",https://www.linkedin.com/in/jb-straubel-b694981,39.163798,-119.767403,Leader,Leader,Leader
434,Strunk,Elaine Strunk,Director of Global Sustainability,McDonalds,"Chicago, IL",USA,"Chicago, IL, USA",https://www.linkedin.com/in/elainestrunk/,41.878114,-87.629798,Leader,Leader,Leader
435,Sukhdev,Paven Sukhdev,Founder and Author,Corporation 2020,Nyon,Switzerland,"Nyon, Switzerland",https://www.linkedin.com/in/pavan-sukhdev-2780a614/?originalSubdomain=ch,46.383268,6.234785,Leader,Leader,Leader
436,Sweeney,Sean Sweeney,"Director of the International Program on Labor, Climate & Environment; Coordinator",School of Labor and Urban Studies at City University of New York; Trade Unions for Energy Democracy,"Brooklyn, NY",USA,"Brooklyn, NY, USA",https://www.linkedin.com/in/sean-sweeney-6484a738/ ,40.678178,-73.944158,Leader,Leader,Leader
437,Swilling,Mark Swilling,Professor,Stellenbosch University,Cape Town,South Africa,"Cape Town, South Africa",https://www.linkedin.com/in/mark-swilling-31b7426/,-33.924868,18.424055,Leader,Leader,Leader
438,Tare,Meghna Tare,Chief Sustainability Officer,University of Texas - Arlington,"Dallas, TX",USA,"Dallas, TX, USA",https://www.linkedin.com/in/meghnatare/,32.776664,-96.796988,Leader,Leader,Leader
439,Teixeira,Izabella Teixeira,Co-Chair; Former Minister of the Environment,UNEP International Resource Panel; Brazil,Rio de Janeiro,Brazil,"Rio de Janeiro, Brazil",https://www.linkedin.com/in/izabella-monica-teixeira-she-her-66405812a/?originalSubdomain=br,-22.906847,-43.172896,Leader,Leader,Leader
440,Tenuta,Emilio Tenuta,Vice President Corporate Sustainability,Ecolab,"Saint Paul, MN",USA,"Saint Paul, MN, USA",https://www.linkedin.com/in/emilio-tenuta-670846/,44.953703,-93.089958,Leader,Leader,Leader
441,Tercek,Mark Tercek,Chief Instigator; Former President and Chief Executive Officer,The Instigator; The Nature Conservancy,"Washington, DC",USA,"Washington, DC, USA",https://www.linkedin.com/in/marktercek/ ,38.907192,-77.036871,Leader,Leader,Leader
442,Terry,Bryant  Terry,Author,Ten Speed Press,"San Francisco, CA",USA,"San Francisco, CA, USA",https://www.linkedin.com/in/bryant-terry-54b9033/,37.77493,-122.419416,Leader,Leader,Leader
443,Tesfaye,Filagot Tesfaye,President and Founder,Ethiopian Women in Energy network ,Addis Ababa,Ethiopia,"Addis Ababa, Ethiopia",https://w4c.org/profile/addis-ababa-filagot-tesfaye http://ewien.org/about/team/filagot-tesfaye/,8.980603,38.75776,Leader,Leader,Leader
444,Thant Sin,Devi Thant Sin,Founder,Myanmar Green Network,Yangon,Myanmar,"Yangon, Myanmar",https://news.mongabay.com/2017/01/myanmars-green-princess-is-a-humble-activist-on-a-mission/,16.840939,96.173526,Leader,Leader,Leader
445,Therkildsen,Lars Therkildsen,CEO,HOFOR (Greater Copenhagen Utility),Copenhagen,Denmark,"Copenhagen, Denmark",https://www.linkedin.com/in/lars-therkildsen-6a9a01a7/?originalSubdomain=dk,55.676097,12.568337,Leader,Leader,Leader
446,Thomassin,Kim Thomassin,Executive Vice-President and Head of Investments in Québec and Stewardship Investing,CDPQ,Montreal,Canada,"Montreal, Canada",https://www.linkedin.com/in/kim-thomassin-794682/ ,45.501689,-73.567256,Leader,Leader,Leader
447,Thunberg,Greta Thunberg,Social Media Climate Activist,,Stockholm,Sweden,"Stockholm, Sweden",https://www.instagram.com/gretathunberg/,59.329324,18.068581,Leader,Leader,Leader
448,Torcellini,Paul Torcellini,Principal Engineer,National Renewable Energy Laboratory,"Golden, CO",USA,"Golden, CO, USA",https://www.linkedin.com/in/paul-torcellini-b17562209/ ,39.755543,-105.2211,Leader,Leader,Leader
449,Tournay,Robert Tournay,Head of Sustainability,PwC,"New York, NY",USA,"New York, NY, USA",https://www.linkedin.com/in/robert-tournay-7913ba6a/,40.712775,-74.005973,Leader,Leader,Leader
450,Tubiana,Laurence Tubiana,President and Chief Executive Officer,European Climate Foundation,Paris,France,"Paris, France",https://www.linkedin.com/in/laurence-tubiana-4381314/,48.856614,2.352222,Leader,Leader,Leader
451,Turner,Adair Turner,Chair,The Energy Transitions Commission,London,United Kingdom,"London, United Kingdom",https://www.oecd.org/greengrowth/GGSD%202019_Bio_Turner.pdf,51.507218,-0.127586,Leader,Leader,Leader
452,Ubaldo,Marinel Sumook Ubaldo,Climate Activist,,Manila,Philippines,"Manila, Philippines",https://www.instagram.com/mrnlsmkbld/?hl=en,14.599512,120.98422,Leader,Leader,Leader
453,Uren,Sally Uren,Chief Executive Officer,Forum for the Future,London,United Kingdom,"London, United Kingdom",https://www.linkedin.com/in/dr-sally-uren-97b90624/,51.507218,-0.127586,Leader,Leader,Leader
454,Valdes,Helena Molin Valdes,Head of Secretariat,Climate and Clean Air Coalition,Paris,France,"Paris, France",https://www.linkedin.com/in/helena-molin-valdes-7a222748/,48.856614,2.352222,Leader,Leader,Leader
455,Valiente,Diwigdi Valiente,Head of Sustainability,Panamanian Ministry of Tourism,Panama City,Panama,"Panama City, Panama",https://www.linkedin.com/in/diwigdi-valiente-19a25591/?originalSubdomain=pa,30.158813,-85.660206,Leader,Leader,Leader
456,van den Beuken,Leonie van den Beuken,Program Director,Amsterdam Smart City,Amsterdam,Netherlands,"Amsterdam, Netherlands",https://nl.linkedin.com/in/leonie-van-den-beuken-401baab,52.367573,4.904139,Leader,Leader,Leader
457,van Hook,Evan van Hook,Chief Sustainability Officer,Honeywell,"Morris Plains, NJ",USA,"Morris Plains, NJ, USA",https://www.sandia.gov/about/BofM/vanhook.html,40.839592,-74.48187,Leader,Leader,Leader
