idx,company,notes,Company/Organization (as a thought leader),City/State,Country,website,lat,lng,city,tax1,tax2,tax3
0,M.K. Dorsey,Limited Partner,Ibersun,"Washington, D.C.",USA,https://www.linkedin.com/in/profmkd/,38.907192,-77.036871,"Washington, D.C., USA",Male,Male,Male
1,Herbert Giradet,Author; Co-Founder,World Future Council,Newport,United Kingdom,https://www.linkedin.com/in/herbert-girardet-a2853811/?originalSubdomain=uk,41.490102,-71.312828,"Newport, United Kingdom",Male,Male,Male
2,Anders Wijkman,Co-President,Club of Rome,Stockholm,Sweden,https://www.linkedin.com/in/anders-wijkman-1456058/,59.329324,18.068581,"Stockholm, Sweden",Male,Male,Male
3,Nisakorn Kositratna,Vice Chairman,Thailand Environment Institute,Nonthaburi,Thailand,http://www.tei.or.th/th/executive.php,13.859108,100.521651,"Nonthaburi, Thailand",Male,Male,Male
4,Annie Leonard,Executive Director,Greenpeace USA,"Berkeley, CA",USA,https://www.linkedin.com/in/annie-leonard-65a00333/,37.871523,-122.273042,"Berkeley, CA, USA",Male,Male,Male
5,Brendan Hammond,Project Director at Asian Renewable Energy Hub,Asian Renewable Energy Hub,Perth,Australia,https://www.linkedin.com/in/brendanhammond1/?originalSubdomain=au,-31.952312,115.861309,"Perth, Australia",Male,Male,Male
6,David Jones,Founder,One Young World,"New York, NY",USA,https://www.linkedin.com/in/davidjonesoyw/,40.712775,-74.005973,"New York, NY, USA",Male,Male,Male
7,Vicente Ferreyra Acosta,Chief Executive Officer,Sustentur,Quintana Roo,Mexico,https://www.linkedin.com/in/vicenteferreyra/,19.181739,-88.479138,"Quintana Roo, Mexico",Male,Male,Male
8,Erich Pica,President,Friends of the Earth,"Washington, D.C.",USA,"https://foe.org/about-us/our-team/
https://www.linkedin.com/in/erich-pica-4b84011a/",38.907192,-77.036871,"Washington, D.C., USA",Male,Male,Male
9,Rana Ghoneim,Chief of Energy Systems and Infrastructure Division,UNIDO,Vienna,Austria,https://www.linkedin.com/in/rana-ghoneim-1a5b4840/ ,48.208174,16.373819,"Vienna, Austria",Male,Male,Male
10,Naoko Ishii,Former Chief Executive Officer,Global Environment Facility,Tokyo,Japan,https://twitter.com/naokoishiitokyo?lang=en,35.676192,139.650311,"Tokyo, Japan",Male,Male,Male
11,Akissa Bahri,"Former Minister, Professor","Agriculture, Water Resources and Fisheries/National Agricultural Institute of Tanzania",Tunis,Tunisia,https://inweh.unu.edu/governance/iac/akissa-bahri/,36.806495,10.181532,"Tunis, Tunisia",Male,Male,Male
12,Tim Groser,Former Minister of Climate Change Issues ; Global Advisory Council,Government of New Zealand; TREELION Foundation,Wellington,New Zealand,https://www.linkedin.com/in/tim-groser-a35b9831/,-41.292381,174.778746,"Wellington, New Zealand",Male,Male,Male
13,Bill McKibben,Author; Co-Founder,350.org,"Middlebury, VT",USA,https://www.linkedin.com/in/bill-mckibben-6174131b7/,44.015337,-73.16734,"Middlebury, VT, USA",Male,Male,Male
14,Paul Polman,"Former Chief Executive Officer, Co-Founder","Unilever, Imagine",London,United Kingdom,https://www.linkedin.com/in/paulpolman/,51.507218,-0.127586,"London, United Kingdom",Male,Male,Male
15,Sonia Aggarwal,Former Chief Executive Officer,Energy Innovation,"San Francisco, CA",USA,https://www.linkedin.com/in/soniaaggarwal/,37.77493,-122.419416,"San Francisco, CA, USA",Male,Male,Male
16,Dorothee D'Herde,Former Director of Sustainability and Social Impact,McKinsey & Company,London,United Kingdom,https://www.linkedin.com/in/dorotheedherde/,51.507218,-0.127586,"London, United Kingdom",Male,Male,Male
17,Maureen Damen,Founder,Rise Up Senegal,Dakar,Senegal,https://twitter.com/risesenegal?lang=en,14.716677,-17.467686,"Dakar, Senegal",Male,Male,Male
18,Terry Coss,Retired - Corporate Environmental Director,Xcel Energy,"Minneapolis, MN",USA,https://www.linkedin.com/in/terry-coss-5981b649/,44.977753,-93.265011,"Minneapolis, MN, USA",Male,Male,Male
19,Susan Chong,Founder and Chief Executive Officer,Greenpac,Singapore,Singapore,https://www.linkedin.com/in/susan-chong-b9515623/?originalSubdomain=sg,1.352083,103.819836,"Singapore, Singapore",Male,Male,Male
20,Bertrand Piccard,Chairman,Solar Impulse Foundation,Vaud,Switzerland,https://www.linkedin.com/in/bertrandpiccard/,46.561314,6.536765,"Vaud, Switzerland",Male,Male,Male
21,Gidon Bromberg,Co-Founder and Israeli Director,EcoPeace Middle East,Tel Aviv,Israel,https://www.linkedin.com/in/gidon-bromberg-276504/?originalSubdomain=il,32.0853,34.781768,"Tel Aviv, Israel",Male,Male,Male
22,Sarah El Battouty,Chairman Founder,ECOnsult architecture,Cairo,Egypt,https://www.linkedin.com/in/sarah-el-battouty-2b823081/?originalSubdomain=eg,30.04442,31.235712,"Cairo, Egypt",Male,Male,Male
23,Hindou Oumarou Ibrahim,Conservation International Senior Fellow,Conservation International,N'Djamena,Chad,https://www.linkedin.com/in/hindou-oumarou-ibrahim-2ba22410/?originalSubdomain=td,12.134846,15.055742,"N'Djamena, Chad",Male,Male,Male
24,William McDonough,"Architect, Designer and Author","McDonough Innovation, William McDonough + Partners","Charlottesville, VA",USA,https://www.linkedin.com/in/william-mcdonough/,38.029306,-78.476678,"Charlottesville, VA, USA",Male,Male,Male
25,Richard Morningstar,"Founding Chairman, Board Director","Global Energy Center, Atlantic Council","Washington, D.C.",USA,https://www.albrightstonebridge.com/team/richard-morningstar,38.907192,-77.036871,"Washington, D.C., USA",Male,Male,Male
26,Sanda Ojiambo,Executive Director,United Nations Global Compact,Nairobi,Kenya,https://www.linkedin.com/in/sandaojiambo/ ,-1.292066,36.821946,"Nairobi, Kenya",Male,Male,Male
27,"Vincent Pérez, Jr.",Chairman; Former Secretary,Alternergy and Solar Pacific; Philippine Department of Energy,Manila,Philippines,https://www.linkedin.com/in/vince-s-perez-1287968/?originalSubdomain=ph,14.599512,120.98422,"Manila, Philippines",Male,Male,Male
28,Terri Wills,Former Chief Executive Officer,World Green Building Council,London,United Kingdom,https://www.linkedin.com/in/terriwills/,51.507218,-0.127586,"London, United Kingdom",Male,Male,Male
29,"HRH The Duke of Cambridge, William Arthur Philip Louis Mountbatten-Windsor",Founder,Earthshot Prize,London,United Kingdom,https://twitter.com/KensingtonRoyal?ref_src=twsrc%5Egoogle%7Ctwcamp%5Eserp%7Ctwgr%5Eauthor,51.507218,-0.127586,"London, United Kingdom",Male,Male,Male
30,"His Holiness Pope Francis, Jorge Mario Bergoglio",Bishop of Rome; Author,Roman Catholic Church; Laudato Si',Vatican City,Vatican City,https://twitter.com/Pontifex?ref_src=twsrc%5Egoogle%7Ctwcamp%5Eserp%7Ctwgr%5Eauthor,41.902916,12.453389,"Vatican City, Vatican City",Male,Male,Male
31,Haly Laasme-McQuilkin,US Northeast Regional Representative Board of Directors; Governance Board of Directors,National Energy Assistance Director’s Association (NEADA); National Energy and Utility Affordability Coalition (NEUAC),"Dover, DE",USA,https://www.linkedin.com/in/h%C3%A4ly-laasme-4415454/,39.158168,-75.524368,"Dover, DE, USA",Male,Male,Male
32,Francesco La Camera,Director-General,International Renewable Energy Agency (IRENA),Abu Dhabi,UAE,https://twitter.com/flacamera,24.453884,54.377344,"Abu Dhabi, UAE",Male,Male,Male
33,Adnan Amin,Former Director General,International Renewable Energy Agency (IRENA),"Cambridge, MA",USA,https://www.linkedin.com/in/adnan-amin/,42.373616,-71.109734,"Cambridge, MA, USA",Male,Male,Male
34,Priscilla Achapka,Global President,Women Environmental Programme,Abuja,Nigeria,https://wepnigeria.net/index.php/team/priscilla-achakpa/,9.076478,7.398574,"Abuja, Nigeria",Male,Male,Male
35,Justin Adams,Executive Director,Tropical Forest Alliance,Oxford,United Kingdom,https://www.linkedin.com/in/justin-adams-a074722/,36.3107,-78.590834,"Oxford, United Kingdom",Male,Male,Male
36,Meredith Adler,Executive Director,Student Energy,Vancouver,Canada,https://www.linkedin.com/in/meredithadler/ ,49.282729,-123.120738,"Vancouver, Canada",Male,Male,Male
37,Nuki Agya Utama,Executive Director at ASEAN Centre for Energy,ASEAN center for Energy,Jakarta,Indonesia,https://www.linkedin.com/in/nuki-agya-utama-phd-99450018/,-6.208763,106.845599,"Jakarta, Indonesia",Male,Male,Male
38,H.H. Sheikh Mohammed bin Rashid Al Maktoum,Vice President and Prime Minister,UAE,Dubai,UAE,https://www.linkedin.com/in/mohammedbinrashid/?originalSubdomain=ae,25.204849,55.270783,"Dubai, UAE",Male,Male,Male
39,Leslie Alden,Co-Founder and Executive Director,DRAWDOWN Bay Area,"San Francisco, CA",USA,https://www.linkedin.com/in/leslie-alden-a134aa11/,37.77493,-122.419416,"San Francisco, CA, USA",Male,Male,Male
40,Jessica Aldridge,Director of Sustainability and Zero Watse Programs,Athens Services,"Los Angeles, CA",USA,https://www.linkedin.com/in/jessicaaldridgegreenbean/,34.052234,-118.243685,"Los Angeles, CA, USA",Male,Male,Male
41,Ahmed AlJameel,International Climate & Energy Policy Analyst at Ministry of Energy,Ministry of Energy in Saudi Arabia,Riyadh,Saudi Arabia,https://www.linkedin.com/in/ahmed-aljameel-msc-394b4649/,24.713552,46.675296,"Riyadh, Saudi Arabia",Male,Male,Male
42,Manuel Alonso-Martinez,Executive Director,Earth Team,"El Sobrante, CA",USA,https://www.linkedin.com/in/manuel-alonso-martinez-b14aa220/,37.977145,-122.295247,"El Sobrante, CA, USA",Male,Male,Male
43,Fatemah Alzelzela,Founder,EcoStar,Kuwait City,Kuwait,https://www.instagram.com/eco.star.kw/?hl=en,29.375859,47.977405,"Kuwait City, Kuwait",Male,Male,Male
44,Giana Amador,Founder and Policy Director,Carbon 180,"Oakland, CA",USA,https://www.linkedin.com/in/gianaamador/,37.804351,-122.271164,"Oakland, CA, USA",Male,Male,Male
45,Kristal Ambrose,Founder,Bahamas Plastic Movement,Eleuthera,The Bahamas,https://www.goldmanprize.org/recipient/kristal-ambrose/,24.931446,-76.189966,"Eleuthera, The Bahamas",Male,Male,Male
46,Inger Andersen,Executive Director,United Nations Environment Programme (UNEP),Nairobi,Kenya,https://www.unep.org/people/inger-andersen,-1.292066,36.821946,"Nairobi, Kenya",Male,Male,Male
47,David Attenborough,Broadcaster,,London,United Kingdom,https://twitter.com/attenboroughsir?lang=en,51.507218,-0.127586,"London, United Kingdom",Male,Male,Male
48,Tasso Azevedo,Founder,Imaflora,São Paulo,Brazil,https://www.linkedin.com/in/tassoazevedo/?originalSubdomain=br https://www.ted.com/speakers/tasso_azevedo,-23.555771,-46.639557,"São Paulo, Brazil",Male,Male,Male
49,Alhassan Baba Muniri,Co-Founder,Recycle Up! Ghana,Berlin,Germany,https://www.linkedin.com/in/alhassan-baba-muniru-46b55828/,52.520007,13.404954,"Berlin, Germany",Male,Male,Male
50,Benji Backer,Founder and President,American Conservation Coalition,"Appleton, WI",USA,https://www.linkedin.com/in/benjibacker/,44.261931,-88.415385,"Appleton, WI, USA",Male,Male,Male
51,Farid Baddache,Chief Executive Officer and Co-Founder,Ksapa,Paris,France,https://www.linkedin.com/in/farid-baddache/,48.856614,2.352222,"Paris, France",Male,Male,Male
52,David Baggs,Chief Executive Officer and Program Director,Global Green Tag,Brisbane,Australia,https://www.linkedin.com/in/ecolabel-green-product-certification-transparency-cradle-to-cradle-declare/?originalSubdomain=au,-27.470453,153.026034,"Brisbane, Australia",Male,Male,Male
53,Shalanda Baker,Deputy Director for Energy Justice,"Office of Economic Impact and Development, US Department of Energy","Washington, D.C.",USA,https://www.linkedin.com/in/shalanda-baker-13a607205/,38.907192,-77.036871,"Washington, D.C., USA",Male,Male,Male
54,Peter Bakker,President,World Business Council for Sustainable Development,Geneva,Switzerland,https://www.linkedin.com/in/peter-bakker-14a13638/,46.204391,6.143158,"Geneva, Switzerland",Male,Male,Male
55,Lee Ballin,Head of Business Development and Sustainability,Bloomberg NEF,"New York, NY",USA,https://www.linkedin.com/in/lee-ballin-85aa2033/,40.712775,-74.005973,"New York, NY, USA",Male,Male,Male
56,Charlotte Bande,Global Head of Climate Strategy,Quantis International,"San Diego, CA",USA,https://www.linkedin.com/in/charlotte-bande/,32.715738,-117.161084,"San Diego, CA, USA",Male,Male,Male
57,Sharon Basel,Senior Manager of Sustainability,General Motors,"Detroit, MI",USA,https://www.linkedin.com/in/sharonbasel/,42.331427,-83.045754,"Detroit, MI, USA",Male,Male,Male
58,Nestor Batio Bassiere,"Minister of Environment, Climate Change, and Green Economy",Burkina Faso,Ouagadougou,Burkina Faso,https://www.linkedin.com/in/batio-nestor-bassiere-6036a450/?originalSubdomain=bf,12.371428,-1.51966,"Ouagadougou, Burkina Faso",Male,Male,Male
59,Xiye Bastida,Lead Organizer,Fridays for Future,"New York, NY",USA,https://www.linkedin.com/in/xiye-bastida-377394199/,40.712775,-74.005973,"New York, NY, USA",Male,Male,Male
60,Holly Beale,"Program Manager, Datacenter Environmental Sustainability",Microsoft,"Seattle, WA",USA,https://www.linkedin.com/in/hollybeale/,47.60621,-122.332071,"Seattle, WA, USA",Male,Male,Male
61,Nicole Becker,Co-founder,Jóvenes por el Clima Argentina (Youth for Climate Argentina),Buenos Aires,Argentina,https://twitter.com/nickibeckerok?lang=en,-34.603684,-58.381559,"Buenos Aires, Argentina",Male,Male,Male
62,Sophie Beckham,Chief Sustainability Officer,International Paper,"Ashville, NC",USA,https://www.linkedin.com/in/sophie-beckham-18209957/,35.595058,-82.551487,"Ashville, NC, USA",Male,Male,Male
63,Ellen Bell,Manager of Energy Transitions,Environmental Defense Fund,"Chicago, IL",USA,https://www.linkedin.com/in/ellenkbell/,41.878114,-87.629798,"Chicago, IL, USA",Male,Male,Male
64,Flavia Bellaguarda,Co-founder & Ambassador,Youth Climate Leaders,São Paulo,Brazil,https://www.linkedin.com/in/fl%C3%A1via-bellaguarda/,-23.555771,-46.639557,"São Paulo, Brazil",Male,Male,Male
65,Mona Benisi,Global Head of Sustainability Real Assets,Morgan Stanley,"New York, NY",USA,https://www.linkedin.com/in/mona-benisi-64b00b68/,40.712775,-74.005973,"New York, NY, USA",Male,Male,Male
66,Janine Benyus,Founder,Biomimicry Institute,"Stevensville, MT",USA,https://www.linkedin.com/in/janine-benyus-a5626/ ,46.509922,-114.093159,"Stevensville, MT, USA",Male,Male,Male
67,Christian Berg,University Lecturer,Kiel University,Heikendorf,Germany,https://www.linkedin.com/in/prof-dr-christian-berg-38150511/?locale=en_US,54.379377,10.211254,"Heikendorf, Germany",Male,Male,Male
68,Ken Berlin,President and Chief Executive Officer,The Climate Reality Project,"Washington, D.C.",USA,https://www.linkedin.com/in/kberlin/,38.907192,-77.036871,"Washington, D.C., USA",Male,Male,Male
69,Mitchell Bernard,Chief Counsel,NRDC,"New York, NY",USA,https://www.nrdc.org/experts/mitchell-bernard,40.712775,-74.005973,"New York, NY, USA",Male,Male,Male
70,Apoorv Bhargava,Chief Executive Officer and Co-Founder,Weave Grid,"San Francisco, CA",USA,https://www.linkedin.com/in/apoorv-bhargava/,37.77493,-122.419416,"San Francisco, CA, USA",Male,Male,Male
71,Rosina Bierbaum,Professor of Environmental Policy and Planning Climate + Energy,University of Michigan,"Ann Arbor, MI",USA,https://seas.umich.edu/research/faculty/rosina-bierbaum ,42.280826,-83.743038,"Ann Arbor, MI, USA",Male,Male,Male
72,Fatih Birol,Executive Director,International Energy Agency,Paris,France,https://www.linkedin.com/in/fatih-birol-66862a195/,48.856614,2.352222,"Paris, France",Male,Male,Male
73,José Luis Blasco,Global Sustainability Director,Acciona,Madrid,Spain,https://www.linkedin.com/in/joseluisblasco/,40.416775,-3.70379,"Madrid, Spain",Male,Male,Male
74,May Boeve,Executive Director,350.org,"Brooklyn, NY",USA,https://twitter.com/mayboeve?lang=en,40.678178,-73.944158,"Brooklyn, NY, USA",Male,Male,Male
75,Abby Bonita,Head of Sustainability Reporting and Compliance,MERALCO,Manila,Philippines,https://www.linkedin.com/in/abby-bonita-b7931365/,14.599512,120.98422,"Manila, Philippines",Male,Male,Male
76,Hynd Bouhia,President and Chief Executive Officer,Strategica,Rabat,Morocco,https://www.linkedin.com/in/hynd-bouhia-phd-0289a3a3/,33.97159,-6.849813,"Rabat, Morocco",Male,Male,Male
77,Rim Boukhchina,Head of Sustainable Energy Policies and Member States Support Unit,RCREEE,ben arous,Tunisia,https://www.linkedin.com/in/rim-boukhchina-99bb686b/,36.7435,10.231976,"ben arous, Tunisia",Male,Male,Male
78,Lisa Boyd,Senior Director of Corporate Responsibility and Sustainability,Target,"Minneapolis, MN",USA,https://www.linkedin.com/in/lmboyd/,44.977753,-93.265011,"Minneapolis, MN, USA",Male,Male,Male
79,Kate Brandt,Chief Sustainability Officer,Google,"Mountain View, CA",USA,https://www.linkedin.com/in/katebrandt/,37.386052,-122.083851,"Mountain View, CA, USA",Male,Male,Male
80,Peggy Brannigan,"Senior Program Manager, Global Environmental Sustainability",LinkedIn,"San Francisco, CA",USA,https://www.linkedin.com/in/peggybrannigan/,37.77493,-122.419416,"San Francisco, CA, USA",Male,Male,Male
81,Deanna Bratter,Head of Sustainable Development,Danone,"Lafayette, CO",USA,https://www.linkedin.com/in/deannabratter/,39.993596,-105.089706,"Lafayette, CO, USA",Male,Male,Male
82,Corey Brinkema,Chief Executive Officer,Forest Stewardship Council,"Minneapolis, MN",USA,https://www.linkedin.com/in/corey-brinkema-b529338/ ,44.977753,-93.265011,"Minneapolis, MN, USA",Male,Male,Male
83,Tim Brooks,VP of Environmental Sustainability and Corporate Responsibility,Lego,Billund,Denmark,https://www.linkedin.com/in/tim-brooks-48a5b09/?originalSubdomain=dk https://www.fastcompany.com/person/tim-brooks,55.728449,9.112366,"Billund, Denmark",Male,Male,Male
84,Carol-Ann Brown,President,The Delphi Group,Calgary,Canada,https://www.linkedin.com/in/carol-ann-brown-37512923/?originalSubdomain=ca,51.044733,-114.071883,"Calgary, Canada",Male,Male,Male
85,Michael Brune,Executive Director,Sierra Club,"Oakland, CA",USA,https://www.linkedin.com/in/michael-brune-6805421b/,37.804351,-122.271164,"Oakland, CA, USA",Male,Male,Male
86,Christine Brunel-Ligneau,Head of Sustainable Agriculture,Bayer AG CropScience Division,Düsseldorf,Germany,https://www.linkedin.com/in/christine-brunel-ligneau/?originalSubdomain=de,51.227741,6.773456,"Düsseldorf, Germany",Male,Male,Male
87,Marisa Buchanan,"Managing Director, Head of Sustainability",JP Morgan Chase & Co.,"New York, NY",USA,https://www.linkedin.com/in/marisa-buchanan-2b10206/,40.712775,-74.005973,"New York, NY, USA",Male,Male,Male
88,Barbara Buchner,Global Managing Director,Climate Policy Initiative,"San Francisco, CA",USA,https://www.linkedin.com/in/barbara-buchner-3baaa86/,37.77493,-122.419416,"San Francisco, CA, USA",Male,Male,Male
89,Robert Bullard,Distinguished Professor of Urban Planning at the Barbara Jordan-Mickey Leland School of Public Affairs,Texas Southern University,"Houston, TX",USA,https://www.linkedin.com/in/robert-bullard-7b471733/,29.760427,-95.369803,"Houston, TX, USA",Male,Male,Male
90,Gloria Bulus,Founder,Bridge That Gap Initiative,Kaduna,Nigeria,https://www.linkedin.com/in/gloria-kasang-bulus-1b006830/?originalSubdomain=ng,10.510464,7.416505,"Kaduna, Nigeria",Male,Male,Male
91,Jane Burston,"Executive Director, Former Head of Climate and Environment","Clean Air Fund, UK NPL",London,United Kingdom,https://www.linkedin.com/in/janeburston/,51.507218,-0.127586,"London, United Kingdom",Male,Male,Male
92,Sarah Butler-Sloss,Founder Director,Ashden,London,United Kingdom,https://www.linkedin.com/in/sarah-butler-sloss-3a310370/,51.507218,-0.127586,"London, United Kingdom",Male,Male,Male
93,Sasha Calder,Head of Sustainability,Genomatica,"San Diego, CA",USA,https://www.linkedin.com/in/sashacalder/,32.715738,-117.161084,"San Diego, CA, USA",Male,Male,Male
94,James Cameron,Senior Advisor,"Pollination, Tulchan & SYSTEMIQ",London,United Kingdom,https://www.linkedin.com/in/jamescameron4/,51.507218,-0.127586,"London, United Kingdom",Male,Male,Male
95,Lynelle Preston Cameron,Vice President of Sustainability; Chief Executive Officer of Autodesk Foundation,Autodesk,"San Francisco, CA",USA,https://www.linkedin.com/in/lynelle-preston-cameron-2b11591/,37.77493,-122.419416,"San Francisco, CA, USA",Male,Male,Male
96,Mark Campanale,Founder and Executive Director,Carbon Tracker,London,United Kingdom,https://www.linkedin.com/in/mark-campanale-1886203/,51.507218,-0.127586,"London, United Kingdom",Male,Male,Male
97,Xiangkun (Elvis) Cao,Global Shaper,World Economic Forum,"Cambridge, MA",USA,https://www.linkedin.com/in/xiangkun-elvis-cao/?miniProfileUrn=urn%3Ali%3Afs_miniProfile%3AACoAABGYeU4BBddA4zIpSXAcA2ZUelcqtO6kDd8,42.373616,-71.109734,"Cambridge, MA, USA",Male,Male,Male
98,Chris Castro,Director of Sustainability and Resilience,City of Orlando,"Orlando, FL",USA,https://www.linkedin.com/in/chriscastroideas/ ,28.538383,-81.378927,"Orlando, FL, USA",Male,Male,Male
99,Wu Changhua,Chief Executive Officer,Beijing Future Innovation Center,Beijing,China,https://www.linkedin.com/in/changhua-wu-a9495237/,39.9042,116.407396,"Beijing, China",Male,Male,Male
100,Ted Chen,"Co-Founder, Chief Executive Officer, and Chief Product Architect",EverComm Singapore,Singapore,Singapore,https://www.linkedin.com/in/chiuhaochen/,1.352083,103.819836,"Singapore, Singapore",Male,Male,Male
101,Emily Chew,Executive Vice President and Chief Responsible Investment Officer,Calvert Research and Management,"New York, NY",USA,https://www.linkedin.com/in/chewemily/,40.712775,-74.005973,"New York, NY, USA",Male,Male,Male
102,Herry Cho,"Managing Director, Head of Sustainability and Sustainable Finance",SGX,Singapore,Singapore,https://www.linkedin.com/in/herrycho/,1.352083,103.819836,"Singapore, Singapore",Male,Male,Male
103,Isha Clarke,Founding Member,Youth vs. Apocalypse,"Oakland, CA",USA,https://www.instagram.com/curlyqisha/?hl=en,37.804351,-122.271164,"Oakland, CA, USA",Male,Male,Male
104,Helen Clarkson,Chief Executive Officer,The Climate Group,London,United Kingdom,https://www.linkedin.com/in/helenclarkson/,51.507218,-0.127586,"London, United Kingdom",Male,Male,Male
105,Ellie Cohen,Chief Executive Officer,The Climate Center,"San Francisco, CA",USA,https://www.linkedin.com/in/elliecohen/,37.77493,-122.419416,"San Francisco, CA, USA",Male,Male,Male
106,Lisa Colicchio,Director of Sustainability,Metrolink,"Los Angeles, CA",USA,https://www.linkedin.com/in/lisacolicchio/,34.052234,-118.243685,"Los Angeles, CA, USA",Male,Male,Male
107,Myriam Coneim,Director of Sustainability,American Express,"New York, NY",USA,https://www.linkedin.com/in/myriamconeim/?locale=en_US,40.712775,-74.005973,"New York, NY, USA",Male,Male,Male
108,James Connelly,Chief Executive Officer,My Green Lab,"Seattle, WA",USA,https://www.linkedin.com/in/james-connelly-55909024/,47.60621,-122.332071,"Seattle, WA, USA",Male,Male,Male
109,Dominique Nils Conseil,Founder and Former Chief Executive Officer,Sustainable Results,"Minneapolis, MN",USA,https://www.linkedin.com/in/dominique-nils-conseil/,44.977753,-93.265011,"Minneapolis, MN, USA",Male,Male,Male
110,Pia Heidenmark Cook,Chief Sustainability Officer,IKEA,Stockholm,Sweden,https://www.linkedin.com/in/pia-heidenmark-cook-bb088042/,59.329324,18.068581,"Stockholm, Sweden",Male,Male,Male
111,Erin Cooke,Sustainability Director,San Francisco International Airport,"San Francisco, CA",USA,https://www.linkedin.com/in/erinmcooke/,37.77493,-122.419416,"San Francisco, CA, USA",Male,Male,Male
112,Mari Copeny,"Little Miss Flint, Founder",Wednesdays For Water,"Flint, MI",USA,https://twitter.com/LittleMissFlint?ref_src=twsrc%5Egoogle%7Ctwcamp%5Eserp%7Ctwgr%5Eauthor,43.012527,-83.687456,"Flint, MI, USA",Male,Male,Male
113,Alexandra Criscuolo,Environmental Sustainability Manager,New York Road Runners,"New York, NY",USA,https://www.linkedin.com/in/alexandracriscuolo/,40.712775,-74.005973,"New York, NY, USA",Male,Male,Male
114,Thomas Crowther,Assistant Professor of Global Ecosystem Ecology,ETH Zurich,Zurich,Switzerland,https://www.linkedin.com/in/crowther-thomas-ecology/,47.376887,8.541694,"Zurich, Switzerland",Male,Male,Male
115,Alberto Curamil,Leader and Spokesperson,Alianza Territorial Mapuche,Aracaunia,Chile,https://www.goldmanprize.org/recipient/alberto-curamil/,-38.948921,-72.331113,"Aracaunia, Chile",Male,Male,Male
116,Gretchen Daily,Senior Fellow,"Woods Institute for the Environment, Stanford University","Palo Alto, CA",USA,https://woods.stanford.edu/people/gretchen-c-daily,37.441883,-122.14302,"Palo Alto, CA, USA",Male,Male,Male
117,Jad Daley,President and Chief Executive Officer,American Forests,"Washington, D.C.",USA,https://www.linkedin.com/in/jad-daley-08882010/,38.907192,-77.036871,"Washington, D.C., USA",Male,Male,Male
118,Cyane Dandridge,Executive Director,Strategic Energy Innovations (SEI),"San Rafael, CA",USA,https://www.linkedin.com/in/cyane-dandridge-6a86a0/,37.973535,-122.531087,"San Rafael, CA, USA",Male,Male,Male
119,Lisa Daniell,Director of Climate Change,Ministry for the Environment,Auckland,New Zealand,https://www.linkedin.com/in/lisa-daniell-5b353421/,-36.850883,174.764488,"Auckland, New Zealand",Male,Male,Male
120,Aniruddha Dasgupta,President and Chief Executive Officer,World Resources Institute (WRI),"Washington, D.C.",USA,https://www.linkedin.com/in/aniruddha-dasgupta/,38.907192,-77.036871,"Washington, D.C., USA",Male,Male,Male
121,Juliet Davenport,Founder and Chief Executive Officer,Good Energy,Swindon,United Kingdom,https://www.linkedin.com/in/juliet-davenport-643564/,51.555774,-1.779718,"Swindon, United Kingdom",Male,Male,Male
122,Tony Davis,Chief Executive Officer and Chief Information Officer,Inherent Group,"New York, NY",USA,https://www.linkedin.com/in/tony-davis-42491819b,40.712775,-74.005973,"New York, NY, USA",Male,Male,Male
123,Bill Davis,Founder & Managing Director,Stance Capital,"Winchester, MA",USA,https://www.linkedin.com/in/bill-davis-90a7b91/,42.452303,-71.136996,"Winchester, MA, USA",Male,Male,Male
124,Han de Groot,Executive Director; Former Chief Executive Officer,WASTE NL; Rainforest Alliance,South Holland,Netherlands,https://www.linkedin.com/in/handegroot1/,41.600868,-87.606989,"South Holland, Netherlands",Male,Male,Male
125,Maria de los Angeles Carvajal,Founder,"SuMar, Choices for Nature",Guaymas,Mexico,https://www.sustainabilityleadersnetwork.org/fellows/maria-carvajal/,27.917865,-110.908938,"Guaymas, Mexico",Male,Male,Male
126,Jonas de Schaepmeester,Program Manager Decarbonization,Umicore,Ghent,Belgium,https://www.linkedin.com/in/jonas-de-schaepmeester-he-him-9b531377/?originalSubdomain=be,51.054342,3.717424,"Ghent, Belgium",Male,Male,Male
127,Jon Dee,Founder and Managing Director,DoSomething,Sydney,Australia,https://www.linkedin.com/in/jondee/,-33.86882,151.209296,"Sydney, Australia",Male,Male,Male
128,Ana Gabriela del Hierro Calvachi,Researcher,Instituto Nacional de Biodiversidad - INABIO,Quito,Ecuador,https://www.linkedin.com/in/adelhierrocalvachi/?originalSubdomain=ec,-0.180653,-78.467838,"Quito, Ecuador",Male,Male,Male
129,Joseph DeSimone,Exec. Chairman and Co-founder,Carbon3d,"San Francisco, CA",USA,https://www.linkedin.com/in/josephdesimone1/,37.77493,-122.419416,"San Francisco, CA, USA",Male,Male,Male
130,Ankur Dhanuka,Deep Decarbonization Research Fellow with the Environment and Natural Resources Program,Harvard University,"Cambridge, MA",USA,https://www.linkedin.com/in/ankur-dhanuka-744bbb28/,42.373616,-71.109734,"Cambridge, MA, USA",Male,Male,Male
131,Illac Diaz,Founder,Liter of Light,Manila,Philippines,https://www.linkedin.com/in/ildiaz/?originalSubdomain=ph,14.599512,120.98422,"Manila, Philippines",Male,Male,Male
132,Suzanne DiBianca,EVP Corporate Relations and Chief Impact Officer,Salesforce,"San Francisco, CA",USA,https://www.linkedin.com/in/suzannedibianca/,37.77493,-122.419416,"San Francisco, CA, USA",Male,Male,Male
133,Abigail Dillen,President,Earthjustice,"San Francisco, CA",USA,https://www.linkedin.com/in/abbie-dillen/ ,37.77493,-122.419416,"San Francisco, CA, USA",Male,Male,Male
134,Ralph DiNola,Chief Executive Officer,New Buildings Institute,"Portland, OR",USA,https://www.linkedin.com/in/ralph-dinola-2092ab1/ ,45.515232,-122.678385,"Portland, OR, USA",Male,Male,Male
135,Sandrine Dixson-Declѐve,Senior Advisor,Interel,Brussels,Belgium,https://www.linkedin.com/in/sandrine-dixson-decl%C3%A8ve-9074aa2/?originalSubdomain=be,50.85034,4.35171,"Brussels, Belgium",Male,Male,Male
136,Cheryl Dorsey,President,Echoing Green,"Washington, D.C.",USA,https://www.linkedin.com/in/cheryl-dorsey/,38.907192,-77.036871,"Washington, D.C., USA",Male,Male,Male
137,Bin Duan,Director,Beijing Carbon-Change Environment Research Center,"Dongcheng District, Beijing",China,https://www.linkedin.com/in/bin-duan-036115a2/,39.928353,116.416357,"Dongcheng District, Beijing, China",Male,Male,Male
138,Mafalda Duarte,Chief Executive Officer,Climate Investment Funds,"Washington, D.C.",USA,https://www.linkedin.com/in/mafaldaduarte1/ ,38.907192,-77.036871,"Washington, D.C., USA",Male,Male,Male
139,Jill Dumain,Global Vice President of Sustainability Solutions; Former Chief Executive Officer,SGS; BlueSign Technologies,"Santa Barbara, CA",USA,https://www.linkedin.com/in/jilldumain/?originalSubdomain=ch,34.42083,-119.69819,"Santa Barbara, CA, USA",Male,Male,Male
140,Junko Edahiro,President,"Institute for Studies in Happiness, Economy and Society (ISHES)",Tokyo,Japan,https://www.linkedin.com/in/junko-edahiro-98a57b162/?originalSubdomain=jp,35.676192,139.650311,"Tokyo, Japan",Male,Male,Male
141,Ndidi Nnoli Edozien,Chair,Circular Economy Innovation Partnership (CEIP),Lagos,Nigeria,https://www.linkedin.com/in/dr-ndidi-nnoli-edozien-798649141/?originalSubdomain=ng,6.524379,3.379206,"Lagos, Nigeria",Male,Male,Male
142,Jack Ehnes,Chief Executive Officer,CalSTRS,"West Sacramento, CA",USA,https://www.linkedin.com/in/jack-ehnes/,38.580461,-121.530234,"West Sacramento, CA, USA",Male,Male,Male
143,Karim El Aynaoui,President,Policy Center for the New South,Rabat,Morocco,https://www.linkedin.com/company/policycenterns/about/,33.97159,-6.849813,"Rabat, Morocco",Male,Male,Male
144,John Elliott,Chief Sustainability Officer,Lawrence Berkeley National Laboratory,"Berkeley, CA",USA,https://www.linkedin.com/in/john-elliott-7317a662/,37.871523,-122.273042,"Berkeley, CA, USA",Male,Male,Male
145,James Ellsmoor,Founder and Chief Executive Officer; Director,Island Innovation; Solar Head of State,Lisbon,Portugal,https://www.linkedin.com/in/jellsmoor/,38.722252,-9.139337,"Lisbon, Portugal",Male,Male,Male
146,Jed Emerson,"Managing Director, Global Lead Impact Investing",Tiedemann Advisors,"New York, NY",USA,https://www.linkedin.com/in/jedemerson/,40.712775,-74.005973,"New York, NY, USA",Male,Male,Male
147,Patricia Espinosa,Executive Secretary,United Nations Framework Convention on Climate Change (UNFCCC),Bonn,Germany,https://twitter.com/PEspinosaC?ref_src=twsrc%5Egoogle%7Ctwcamp%5Eserp%7Ctwgr%5Eauthor,50.73743,7.098207,"Bonn, Germany",Male,Male,Male
148,Megan Euston-Brown,Director at Sustainable Energy Africa,Director at Sustainable Energy Africa,Cape Town,South Africa,https://www.sustainable.org.za/people.php,-33.924868,18.424055,"Cape Town, South Africa",Male,Male,Male
149,Meghan Fay Zahniser,Executive Director,AASHE,"Philadelphia, PA",USA,linkedin.com/in/meghan-fay-zahniser-5616087,39.952584,-75.165222,"Philadelphia, PA, USA",Male,Male,Male
150,Adrian Fernández Bremauntz,Chief Executive Officer,Iniciativa Climática de México,Mexico City,Mexico,https://www.linkedin.com/in/adrian-fern%C3%A1ndez-284a4930/?originalSubdomain=mx,19.432608,-99.133208,"Mexico City, Mexico",Male,Male,Male
151,Edda Fernández Luiselli,Director General,Primary Sector and Renewable Natural Resources in the Undersecretary for Environmental Regulation and Promotion of the Ministry of Environment and Natural Resources (SEMARNAT),Mexico City,Mexico,https://twitter.com/eddafdz?lang=en,19.432608,-99.133208,"Mexico City, Mexico",Male,Male,Male
152,Christiana Figueres,Founding Partner,Global Optimism,San Jose,Costa Rica,https://www.linkedin.com/in/christianafigueres/ ,37.338208,-121.886329,"San Jose, Costa Rica",Male,Male,Male
153,Martha Hall Findlay,Chief Sustainability Officer,Suncor,Calgary,Canada,https://www.linkedin.com/in/marthahallfindlay/?originalSubdomain=ca,51.044733,-114.071883,"Calgary, Canada",Male,Male,Male
154,Cassie Flynn,Strategic Advisor on Climate Change,United Nations Development Programme,"New York, NY",USA,https://www.linkedin.com/in/cassieflynn/ ,40.712775,-74.005973,"New York, NY, USA",Male,Male,Male
155,Jonathan Foley,Exec. Director,Project Drawdown,"San Francisco, CA",USA,https://www.linkedin.com/in/jonathan-foley-182808b9/,37.77493,-122.419416,"San Francisco, CA, USA",Male,Male,Male
156,Andrew Forrest,Founder,GH2,Perth,Australia,https://www.linkedin.com/in/andrew-forrest-57672b1a/?originalSubdomain=au,-31.952312,115.861309,"Perth, Australia",Male,Male,Male
157,Yasmine Fouad,Minister of Environment,Arabic Republic of Egypt,Cairo,Egypt,https://www.eeaa.gov.eg/en-us/aboutus/aboutministry/minister.aspx,30.04442,31.235712,"Cairo, Egypt",Male,Male,Male
158,Mike Fraser,VP of Global Sustainability Services,Schneider Electric,"Louisville, KY",USA,https://www.linkedin.com/in/mnfraser/,38.252665,-85.758456,"Louisville, KY, USA",Male,Male,Male
159,Juan Jose Freijo,"Vice President, Global Head of Sustainability and EMEA Government Affairs",Brambles,Madrid,Spain,https://www.linkedin.com/in/j-j-freijo-42935410/,40.416775,-3.70379,"Madrid, Spain",Male,Male,Male
160,Julio Friedmann,"Senior Research Scholar, Lead of CaMRI Initiative",Columbia University,"New York, NY",USA,https://www.linkedin.com/in/julio-friedmann-86a83a44/,40.712775,-74.005973,"New York, NY, USA",Male,Male,Male
161,Gil Friend,Chief Executive Officer,Natural Logic,"Berkeley, CA",USA,https://www.linkedin.com/in/gfriend/,37.871523,-122.273042,"Berkeley, CA, USA",Male,Male,Male
162,Marcelo Furtado,Chief Sustainability Officer,ZScore,Sao Paolo,Brazil,https://www.linkedin.com/in/marcelo-furtado-49912861/en/?originalSubdomain=br,-23.555771,-46.639557,"Sao Paolo, Brazil",Male,Male,Male
163,Eric Garcetti,"Mayor of LA, Chairperson",C40 Cities,"Los Angeles, CA",USA,https://www.linkedin.com/in/ericgarcetti/ ,34.052234,-118.243685,"Los Angeles, CA, USA",Male,Male,Male
164,Bill Gates,Co-chair,Bill and Melinda Gates Foundation,"Seattle, WA",USA,https://www.linkedin.com/in/williamhgates/,47.60621,-122.332071,"Seattle, WA, USA",Male,Male,Male
165,Pratik Gauri,Partner and India President,5th Element Group PBC,Delhi,India,https://www.linkedin.com/in/pratikgauri/,28.704059,77.10249,"Delhi, India",Male,Male,Male
166,Michel Gelobter,Managing Director,Reflective Earth,"Berkeley, CA",USA,https://www.linkedin.com/in/gelobter/,37.871523,-122.273042,"Berkeley, CA, USA",Male,Male,Male
167,Michael Gerrard,Professor,Columbia University Law School,"New York, NY",USA,https://www.linkedin.com/in/michael-gerrard-534262131/,40.712775,-74.005973,"New York, NY, USA",Male,Male,Male
168,Mattias Goldmann,Chief Sustainability Officer,Sweco,Stockholm,Sweden,https://www.linkedin.com/in/mattiasgoldmann/,59.329324,18.068581,"Stockholm, Sweden",Male,Male,Male
169,Luis Gonzalez,Director of Advocacy,Unidad Ecológica Salvadoreña,San Salvador,El Salvador,https://twitter.com/unes_elsalvador?lang=en,13.69294,-89.218191,"San Salvador, El Salvador",Male,Male,Male
170,Ajei Gopal,Chief Executive Officer,Ansys,"Pittsburg, PA",USA,https://www.linkedin.com/in/ajeigopal/,40.440625,-79.995886,"Pittsburg, PA, USA",Male,Male,Male
171,Maja Göpel,Director of Research,The New Institute,Berlin,Germany,https://twitter.com/beyond_ideology?lang=en,52.520007,13.404954,"Berlin, Germany",Male,Male,Male
172,Kate Gordon,Director,California Governor's Office of Planning and Research,"Berkeley, CA",USA,https://www.linkedin.com/in/kategordonconsulting/,37.871523,-122.273042,"Berkeley, CA, USA",Male,Male,Male
173,Al Gore,Chairman,Generation Investment Management,"Nashville, TN",USA,https://www.algore.com/,36.162664,-86.781602,"Nashville, TN, USA",Male,Male,Male
174,James Goudreau,Head of Climate,Novartis,"Boston, MA",USA,https://www.linkedin.com/in/jamesgoudreau/,42.360082,-71.05888,"Boston, MA, USA",Male,Male,Male
175,Mauricio Graber,Chief Executive Officer,Chr. Hansen Holdings A/S,Copenhagen,Denmark,https://www.linkedin.com/in/mauricio-graber/,55.676097,12.568337,"Copenhagen, Denmark",Male,Male,Male
176,Sonja Graham,CO-Chief Executive Officer,Global Action Plan,London,United Kingdom,https://www.linkedin.com/in/sonjagraham/,51.507218,-0.127586,"London, United Kingdom",Male,Male,Male
177,Phil Graves,Chief Sustainability Officer: President,Bass Pro Shops; Johnny Morris Foundation,"Springfield, MS",USA,https://www.linkedin.com/in/phil-graves-1b993515/,37.208957,-93.292299,"Springfield, MS, USA",Male,Male,Male
178,Alisa Gravitz,Chief Executive Officer,Green America,"Washington, D.C.",USA,https://greenamerica.org/people/alisa-gravitz,38.907192,-77.036871,"Washington, D.C., USA",Male,Male,Male
179,Catherine Grenier,President and Chief Executive Officer,Nature Conservancy Canada,Quebec,Canada,https://www.linkedin.com/in/catherine-grenier-448278108/ ,46.813878,-71.207981,"Quebec, Canada",Male,Male,Male
180,Marianna Grossman,Founder and Managing Partner,Minerva Ventures,"Portland, OR",USA,https://www.linkedin.com/in/mariannagrossman/,45.515232,-122.678385,"Portland, OR, USA",Male,Male,Male
181,Eduardo Gudynas,Director,Latin American Centre for Social Ecology,Montivideo,Uruguay,https://greattransition.org/contributor/eduardo-gudynas,-34.901113,-56.164531,"Montivideo, Uruguay",Male,Male,Male
182,Alexsandra Guerra,Co-Founder and Director of Corporate Development,Nori,"Seattle, WA",USA,https://www.linkedin.com/in/alexsandraguerra/,47.60621,-122.332071,"Seattle, WA, USA",Male,Male,Male
183,Ranjit Gupta,Chief Executive Officer Azure power,Azure power,Delhi,India,https://www.linkedin.com/in/ranjit-gupta-98b351/,28.704059,77.10249,"Delhi, India",Male,Male,Male
184,Juliana Gutiérrez,"Director, Co-Founder",Low Carbon City,Medellin,Colombia,https://www.linkedin.com/in/julianagutierrezr/?originalSubdomain=co https://fellows.echoinggreen.org/fellow/juliana-gutierrez/,6.247638,-75.565815,"Medellin, Colombia",Male,Male,Male
185,Alexis Olans Haass,Chief Sustainability Officer,Arcadis,Munich,Germany,https://www.linkedin.com/in/alexisolanshaass/?originalSubdomain=de,48.135125,11.58198,"Munich, Germany",Male,Male,Male
186,Kristin Halvorsen,Director,Center for International Climate Research,Oslo,Norway,https://twitter.com/kristin_klima?lang=en,59.913869,10.752245,"Oslo, Norway",Male,Male,Male
187,Kate Hampton,Chief Executive Officer,Children's Investment Fund Foundation (CIFF),London,United Kingdom,https://www.linkedin.com/in/kate-hampton-932b3035/,51.507218,-0.127586,"London, United Kingdom",Male,Male,Male
188,James Hansen,"Adjunct Professor and Director of Climate Science, Awareness, and Solutions",Columbia University’s Earth Institute,"Palisades, NY",USA,https://www.earth.columbia.edu/users/profile/james-e-hansen,41.011308,-73.913293,"Palisades, NY, USA",Male,Male,Male
189,Selwin Hart,Special Advisor and Assistant-Secretary General,Climate Action at United Nations,"Washington, D.C.",USA,https://www.linkedin.com/in/selwin-hart-852080136/ ,38.907192,-77.036871,"Washington, D.C., USA",Male,Male,Male
190,Zeke Hausfather,Director of Climate and Energy,The Breakthrough Institute,"San Francisco, CA",USA,https://www.linkedin.com/in/zeke-hausfather-7327699/ ,37.77493,-122.419416,"San Francisco, CA, USA",Male,Male,Male
191,Wenonah Hauter,Founder and Executive Director,Food and Water Watch,"Washington, D.C.",USA,https://www.foodandwaterwatch.org/staff/board-of-directors/,38.907192,-77.036871,"Washington, D.C., USA",Male,Male,Male
192,Paul Hawken,Founder,"Project Drawdown, Project Regeneration","Sausalito, CA",USA,http://www.paulhawken.com/,37.859094,-122.485251,"Sausalito, CA, USA",Male,Male,Male
193,Katharine Hayhoe,Professor of Endowed Political Science and Director of Climate Center,Texas Tech University,"Lubbock, TX",USA,https://www.linkedin.com/in/katharine-hayhoe/,33.577863,-101.855166,"Lubbock, TX, USA",Male,Male,Male
194,Connie Hedegaard,Chair; Former EU Commissioner for Cliamte Action (2010-2014),Organisation for Economic Co-Operation and Development (OECD) Round Table on Sustainability Development,Copenhagen,Denmark,https://conniehedegaard.com/,55.676097,12.568337,"Copenhagen, Denmark",Male,Male,Male
195,Kate Heiny,Sustainability Director,Zalando SE,Brussels,Belgium,https://www.linkedin.com/in/kateheiny/,50.85034,4.35171,"Brussels, Belgium",Male,Male,Male
196,Virginie Helias,Chief Sustainability Officer,Proctor and Gamble,Geneva,Switzerland,https://www.linkedin.com/in/virginiehelias/,46.204391,6.143158,"Geneva, Switzerland",Male,Male,Male
197,Heather Henriksen,Chief Sustainability Officer,Harvard University,"Boston, MA",USA,https://www.linkedin.com/in/heatherhenriksen/,42.360082,-71.05888,"Boston, MA, USA",Male,Male,Male
198,Don Henry,Enterprise Professor of Environmentalism at the Melbourne Sustainable Society Institute,University of Melbourne,Melbourne,Australia,https://msd.unimelb.edu.au/about/our-people/academic/don-henry,-37.813628,144.963058,"Melbourne, Australia",Male,Male,Male
199,Nur Hidayati,Executive Director,Indonesian Forum for the Environment (Walhi),Jakarta,Indonesia,https://www.linkedin.com/in/nur-hidayati-3048304a/,-6.208763,106.845599,"Jakarta, Indonesia",Male,Male,Male
200,Isra Hirsi,Cofounder and Co-Executive Director,U.S. Youth Climate Strike,"Minneapolis, MN",USA,https://twitter.com/israhirsi?lang=en,44.977753,-93.265011,"Minneapolis, MN, USA",Male,Male,Male
201,Anthony Hobley,"Executive Director, Former Chief Executive Officer","Mission Possible Platform of World Economic Platform, Carbon Tracker Initiative",London,United Kingdom,https://www.linkedin.com/in/anthony-hobley/,51.507218,-0.127586,"London, United Kingdom",Male,Male,Male
202,Jennifer Holmgren,Chief Executive Officer,LanzaTech,"Skokie, IL",USA,https://www.linkedin.com/in/jennifer-holmgren-95b6201/,42.032402,-87.741625,"Skokie, IL, USA",Male,Male,Male
203,Daniele Horton,Founder and President,Verdani Partners,"San Diego, CA",USA,https://www.linkedin.com/in/danielehorton/,32.715738,-117.161084,"San Diego, CA, USA",Male,Male,Male
204,Robert Horton,VP of Environmental Affairs and Sustainability,Dallas Fort Worth International Airport,"Irving, TX",USA,https://www.linkedin.com/in/robert-horton/,32.814018,-96.948894,"Irving, TX, USA",Male,Male,Male
205,Elaine Hsieh,Co-Founder,Third Derivative,"Oakland, CA",USA,https://www.linkedin.com/in/elaineishere/ ,37.804351,-122.271164,"Oakland, CA, USA",Male,Male,Male
206,Yuming Hui,China Director,The Climate Group,Beijing,China,https://www.linkedin.com/in/yuming-hui-8066349/?originalSubdomain=cn,39.9042,116.407396,"Beijing, China",Male,Male,Male
207,Nathan Hultman,Founding Director of Center for Global Sustainability,University of Maryland,"Washington, D.C.",USA,https://www.linkedin.com/in/nathan-hultman-223647/ ,38.907192,-77.036871,"Washington, D.C., USA",Male,Male,Male
208,Amy Hunter,Global Head of Sustainability,BlackRock,"San Francisco, CA",USA,https://www.linkedin.com/in/amy-hunter-1307448/,37.77493,-122.419416,"San Francisco, CA, USA",Male,Male,Male
209,Nate Hurst,President of Wells Fargo Foundation; Chief Social Impact and Sustainability Officer,Wells Fargo,"Washington, D.C.",USA,https://www.linkedin.com/in/natehurst/,38.907192,-77.036871,"Washington, D.C., USA",Male,Male,Male
210,Evan Hynes,Co-Founder,Climatebase,"Berkeley, CA",USA,https://www.linkedin.com/in/evanhynes/,37.871523,-122.273042,"Berkeley, CA, USA",Male,Male,Male
211,Hindou Oumarou Ibrahim,President,Association for Indigenous Women and Peoples of Chad (AFPAT),N'Djamena,Chad,https://www.linkedin.com/in/hindou-oumarou-ibrahim-2ba22410/?originalSubdomain=td,12.134846,15.055742,"N'Djamena, Chad",Male,Male,Male
212,Amar Inamdar,Managing Director,KawiSafi Ventures,Nairobi,Kenya,https://www.linkedin.com/in/amarinamdar/,-1.292066,36.821946,"Nairobi, Kenya",Male,Male,Male
213,Lisa Jackson,"Vice President of Environment, Policy and Social Initiatives",Apple,"Cupertino, CA",USA,https://www.apple.com/leadership/lisa-jackson/,37.322998,-122.032182,"Cupertino, CA, USA",Male,Male,Male
214,Mitch Jackson,Chief Sustainability Officer,FedEx Corporation,"Memphis, TN",USA,https://www.linkedin.com/in/mitch-jackson-1a349814/,35.149534,-90.04898,"Memphis, TN, USA",Male,Male,Male
215,Tim Jackson,Director,Centre for the Understanding of Sustainable Prosperity (CUSP),Guildford,United Kingdom,https://www.linkedin.com/in/tim-jackson-0b86311b/?originalSubdomain=uk,51.23622,-0.570409,"Guildford, United Kingdom",Male,Male,Male
216,Christopher James,Founder & Executive Chairman,Engine No. 1,"San Francisco, CA",USA,https://www.linkedin.com/company/engine-no-1/people/,37.77493,-122.419416,"San Francisco, CA, USA",Male,Male,Male
217,Fatou Jeng,Founder,Clean Earth Gambia,Banjul,The Gambia,https://www.linkedin.com/in/fatou-jeng-605b8410b/detail/contact-info/,13.454375,-16.575319,"Banjul, The Gambia",Male,Male,Male
218,Brett Jenks,President and Chief Executive Officer,Rare,"Washington, D.C.",USA,https://www.linkedin.com/in/brett-jenks-9200196/ ,38.907192,-77.036871,"Washington, D.C., USA",Male,Male,Male
219,Marilyn Johnson,Senior Director of Global Sustainability,Clarivate,"Seattle, WA",USA,https://www.linkedin.com/in/marilynajohnson/,47.60621,-122.332071,"Seattle, WA, USA",Male,Male,Male
220,Oliver Johnson,"Head of Climate, Energy and Environment","Government Office for Science, UK",London,United Kingdom,https://www.linkedin.com/in/oliverwjohnson/ ,51.507218,-0.127586,"London, United Kingdom",Male,Male,Male
221,David Johnson,Principal,SERA Architects,"Oakland, CA",USA,https://www.linkedin.com/in/david-johnson-3a51495,37.804351,-122.271164,"Oakland, CA, USA",Male,Male,Male
222,Janis Searles Jones,Chief Executive Officer,Ocean Conservancy,"Portland, OR",USA,https://www.linkedin.com/in/janissearlesjones/ ,45.515232,-122.678385,"Portland, OR, USA",Male,Male,Male
223,Hannah Jones,Former Chief Sustainability Officer,Nike,"Portland, OR",USA,https://www.linkedin.com/in/joneshannah/,45.515232,-122.678385,"Portland, OR, USA",Male,Male,Male
224,Lucas Joppa,Chief Environmental Officer,Microsoft,"Redmond, WA",USA,https://www.linkedin.com/in/lucas-joppa/,47.673988,-122.121512,"Redmond, WA, USA",Male,Male,Male
225,Siri M. Kalvig,Chief Executive Officer,Nysnø Climate Investments,Stavanger,Norway,https://www.linkedin.com/in/siri-m-kalvig-a17596b/,58.969976,5.733107,"Stavanger, Norway",Male,Male,Male
226,William Kamkwamba,Co-founder,Moving Windmills Project,Wimbe,Malawi,https://twitter.com/wkamkwamba?lang=en,42.202064,-71.255791,"Wimbe, Malawi",Male,Male,Male
227,Daniel Kammen,Professor of Energy,UC Berkeley; Renewable and Appropriate Energy Lab,"Berkeley, CA",USA,https://www.linkedin.com/in/daniel-kammen-4217346/ ,37.871523,-122.273042,"Berkeley, CA, USA",Male,Male,Male
228,Kevin Kampschroer,,US General Services Administration,"Washington, D.C.",USA,https://www.linkedin.com/in/kevinkampschroer/ ,38.907192,-77.036871,"Washington, D.C., USA",Male,Male,Male
229,Andy Karsner,Partner,Emerson Collective,"Palo Alto, CA",USA,https://www.linkedin.com/in/andy-karsner-3191952/,37.441883,-122.14302,"Palo Alto, CA, USA",Male,Male,Male
230,Stacy Kauk,Director of Sustainability Fund,Shopify,Ontario,Canada,https://www.linkedin.com/in/stacy-kauk-p-eng/,51.253775,-85.323214,"Ontario, Canada",Male,Male,Male
231,Marie-Noëlle Keijzer,Co-Founder and Chief Executive Officer,WeForest,Antwerp,Belgium,https://www.linkedin.com/in/marie-no%C3%ABlle-keijzer-68089a2/,51.219448,4.402464,"Antwerp, Belgium",Male,Male,Male
232,Melanie Kenderdine,President,Energy Futures Initiative,"Washington, D.C.",USA,https://www.linkedin.com/in/melanie-kenderdine-b13bb7bb/,38.907192,-77.036871,"Washington, D.C., USA",Male,Male,Male
233,Danny Kennedy,Chief Energy Officer,New Energy Nexus,"Oakland, CA",USA,https://www.linkedin.com/in/kennedydanny/ ,37.804351,-122.271164,"Oakland, CA, USA",Male,Male,Male
234,Jouni Keronen,Executive Director,Climate Leadership Council,Porvoo,Finland,https://www.linkedin.com/in/jouni-keronen-98385514a/,60.393192,25.665274,"Porvoo, Finland",Male,Male,Male
235,John Kerry,Special Presidential Envoy for Climate,U.S. Department of State,"Boston, MA",USA,https://www.state.gov/biographies/john-kerry/,42.360082,-71.05888,"Boston, MA, USA",Male,Male,Male
236,Tessa Khan,Director,Uplift,London,United Kingdom,https://www.linkedin.com/in/tessa-khan-a42b6a48/?originalSubdomain=uk,51.507218,-0.127586,"London, United Kingdom",Male,Male,Male
237,Ngụy Thị Khanh,Executive,Green Innovation and Development Centre,Hanoi,Vietnam,https://www.linkedin.com/in/nguy-khanh-12b806131/,21.027764,105.83416,"Hanoi, Vietnam",Male,Male,Male
238,Ban Ki-Moon,Former Secretary-General of the United Nations (8th),United Nations,Seoul,South Korea,https://www.linkedin.com/in/bankimoon/,37.566535,126.977969,"Seoul, South Korea",Male,Male,Male
239,Sean Kidney,Chief Executive Officer,Climate Bonds Initiative,London,United Kingdom,https://www.linkedin.com/in/seankidney/,51.507218,-0.127586,"London, United Kingdom",Male,Male,Male
240,Kenneth Kimmell,Visiting Scholar/Former President,Northeastern University School of Public Policy and Urban Affairs/Union of Concerned Scientists,"Boston, MA",USA,https://www.linkedin.com/in/ken-kimmell-b2046a12/,42.360082,-71.05888,"Boston, MA, USA",Male,Male,Male
241,Robin Kimmerer,Distinguished Teaching Professor and Director of the Center for Native Peoples and the Environment,SUNY ESF,"Fabius, NY",USA,https://www.linkedin.com/in/robin-kimmerer-10397a11/,42.82905,-75.969546,"Fabius, NY, USA",Male,Male,Male
242,Sebastian Kind,Chairman of the Board,GREENMAP,Brussels,Belgium,https://www.linkedin.com/in/sebastiankind/?originalSubdomain=ar,50.85034,4.35171,"Brussels, Belgium",Male,Male,Male
243,John Kliem,Director of Federal Energy Strategy; Former Executive Director of Resilient Energy Program Office,Johnson Controls; US Navy,"Washington, D.C.",USA,https://www.linkedin.com/in/johnkliem/,38.907192,-77.036871,"Washington, D.C., USA",Male,Male,Male
244,Kristina Kloberdanz,Chief Sustainability Officer,Mastercard,"New York, NY",USA,https://www.linkedin.com/in/kristina-kloberdanz-1446491/,40.712775,-74.005973,"New York, NY, USA",Male,Male,Male
245,Isabella Kocher,Former Chief Executive Officer,Engie,Paris,France,https://www.linkedin.com/in/isabellekocher/,48.856614,2.352222,"Paris, France",Male,Male,Male
246,Hiroshi Komiyama,Chairman,Platinum Society Network,Tokyo,Japan,https://www.linkedin.com/pulse/capitalism-coming-age-story-daisuke-tsuchiya/,35.676192,139.650311,"Tokyo, Japan",Male,Male,Male
247,Christian Kroll,Founder,Ecosia,Berlin,Germany,https://www.linkedin.com/in/christian-kroll-b2aa06b/,52.520007,13.404954,"Berlin, Germany",Male,Male,Male
248,Fred Krupp,President,Environmental Defense Fund,"New York, NY",USA,"https://www.edf.org/people/fred-krupp
https://www.linkedin.com/in/fred-krupp-66310510a/",40.712775,-74.005973,"New York, NY, USA",Male,Male,Male
249,Riva Krut,Former Vice President and Chief Sustainability Officer (retired); Board member and Chair of Sustainability & Innovation Committee,Linde; The Metals Company,"New York, NY",USA,https://www.linkedin.com/in/riva-krut-37377722/,40.712775,-74.005973,"New York, NY, USA",Male,Male,Male
250,Petra Kuenkel,Executive Director,Collective Leadership Institute,Berlin,Germany,https://www.linkedin.com/in/petra-kuenkel/,52.520007,13.404954,"Berlin, Germany",Male,Male,Male
251,Emani Kumar,Chairman,Green growth Asia foundation,South Delhi,India,https://www.linkedin.com/in/emani-kumar-93972616/?originalSubdomain=in,28.481655,77.187286,"South Delhi, India",Male,Male,Male
252,Rachel Kyte,"Dean, Former Chief Executive Officer","The Fletcher School at Tufts University, Sustainable Energy for All","Medford, MA",USA,https://www.linkedin.com/in/rachelkyte/,42.41843,-71.106164,"Medford, MA, USA",Male,Male,Male
253,Klaus Lackner,Director of the Center for Negative Carbon Emissions,Arizona State University,"Tempe, AZ",USA,https://www.linkedin.com/in/klaus-lackner/,33.42551,-111.940005,"Tempe, AZ, USA",Male,Male,Male
254,Rodolfo Lacy,Environmental Directorate,OECD,Paris,France,https://www.linkedin.com/in/rodolfo-lacy-306b8bb2/,48.856614,2.352222,"Paris, France",Male,Male,Male
255,Jeff Lalich,EHS for Global Service Center Operations,Rivian,"San Francisco, CA",USA,https://www.linkedin.com/in/jefflalich/,37.77493,-122.419416,"San Francisco, CA, USA",Male,Male,Male
256,Natasha Landell-Mills,Head of Stewardship,Sarasin & Partners,London,United Kingdom,https://www.linkedin.com/in/natasha-landell-mills-cfa-05115935/,51.507218,-0.127586,"London, United Kingdom",Male,Male,Male
257,Anders Langworth,Founder,Bankers for Climate,Stockholm,Sweden,https://www.linkedin.com/in/anders-langworth-725422a/,59.329324,18.068581,"Stockholm, Sweden",Male,Male,Male
258,Janice Lao,ESG Director,Helen of Troy,"El Paso, TX",USA,https://www.linkedin.com/in/janiceillao/,31.761878,-106.485022,"El Paso, TX, USA",Male,Male,Male
259,Hoesung Lee,Chair of IPCC,Intergovernmental Panel on Climate Change,Seoul,South Korea,https://www.linkedin.com/in/hoesung-lee-68792892/?originalSubdomain=kr,37.566535,126.977969,"Seoul, South Korea",Male,Male,Male
260,Audrey Lee,Co-Chair,Clean Energy for Biden,"San Francisco, CA",USA,https://www.linkedin.com/in/jaudreylee/ ,37.77493,-122.419416,"San Francisco, CA, USA",Male,Male,Male
261,Sandra Leibowitz,Founder and Owner,Sustainable Design Consulting,"Alexandria, VA",USA,https://www.linkedin.com/in/sandra-leibowitz-6504b55/,38.804836,-77.046921,"Alexandria, VA, USA",Male,Male,Male
262,Andrew Lever,Director of Policy and Innovation,Carbon Trust,Edinburgh,United Kingdom,https://www.linkedin.com/in/andrew-lever-1a551a/,55.953252,-3.188267,"Edinburgh, United Kingdom",Male,Male,Male
263,Theresa Mundita Lim,Executive Director,ASEAN Center for Biodiversity,"Los Banos, Laguna",Philippines,https://www.linkedin.com/in/theresa-mundita-lim-7322b321/?originalSubdomain=ph,14.169912,121.244063,"Los Banos, Laguna, Philippines",Male,Male,Male
264,Donald Lindsay,Chief Executive Officer,Teck Resources,Vancouver,Canada,https://www.linkedin.com/in/don-lindsay-01136926/?originalSubdomain=ca,49.282729,-123.120738,"Vancouver, Canada",Male,Male,Male
265,Dawn Lippert,Chief Executive Officer,Elemental Excelerator,"Honolulu, Hawaii",USA,https://www.linkedin.com/in/dawnlippert/,21.306944,-157.858333,"Honolulu, Hawaii, USA",Male,Male,Male
266,Hilda Liswani,Founder and Chief Executive Officer,WeBloom,Zurich,Switzerland,https://www.linkedin.com/in/hilda-n-liswani-7952218a/,47.376887,8.541694,"Zurich, Switzerland",Male,Male,Male
267,India Logan-Riley,Climate Activist,,Auckland,New Zealand,https://twitter.com/indimiro?lang=en,-36.850883,174.764488,"Auckland, New Zealand",Male,Male,Male
268,Enrique Lores,Chief Executive Officer,HP Inc.,"Los Altos, CA",USA,https://www.linkedin.com/in/enriquelores/,37.385218,-122.11413,"Los Altos, CA, USA",Male,Male,Male
269,Hunter Lovins,President,Natural Capitalism Solutions,"Denver, CO",USA,https://www.linkedin.com/in/hunterlovins/ ,39.739236,-104.990251,"Denver, CO, USA",Male,Male,Male
270,Mindy Lubber,President and Chief Executive Officer,Ceres,"Boston, MA",USA,https://www.linkedin.com/in/mindy-lubber-b113962/ ,42.360082,-71.05888,"Boston, MA, USA",Male,Male,Male
271,Jane Lubchenco,Professor,Environmental (Marine) Sciences at Oregon State University,"Corvallis, OR",USA,https://www.linkedin.com/in/jane-lubchenco-7794a2207/,44.564566,-123.262044,"Corvallis, OR, USA",Male,Male,Male
272,Clair Mack,Chief Executive,Scottish Renewables,Glasgow,United Kingdom,https://www.linkedin.com/in/claire-mack-50a93814/,55.864237,-4.251806,"Glasgow, United Kingdom",Male,Male,Male
273,Erica Mackie,Co-Founder and Chief Executive Officer,GRID Alternatives,"Oakland, CA",USA,https://www.linkedin.com/in/erica-mackie-9487539/ ,37.804351,-122.271164,"Oakland, CA, USA",Male,Male,Male
274,Bill Maclay,Founder and Principal,Maclay Architects,"Waitsfield, VT",USA,https://www.linkedin.com/in/bill-maclay-a89b352/,44.192639,-72.779848,"Waitsfield, VT, USA",Male,Male,Male
275,Joan MacNaughton,Executive Chair of the World Energy Trilemma,World Energy Council,London,United Kingdom,https://www.linkedin.com/in/joanmacnaughton/,51.507218,-0.127586,"London, United Kingdom",Male,Male,Male
276,Francia Marquez,2018 Goldman Prize Recipient,Goldman Environmental Prize,Cali,Colombia,https://twitter.com/franciamarquezm?lang=en,3.451647,-76.531985,"Cali, Colombia",Male,Male,Male
277,Esteban Martinez Lozada,Sustainability Director,Green Loop,Bogotá,Colombia,https://www.linkedin.com/in/emartinezl/?locale=es_ES,4.710989,-74.072092,"Bogotá, Colombia",Male,Male,Male
278,Kate Marvel,Associate Research Scientist,NASA Goddard Institute for Space Studies (NASA GISS),"New York, NY",USA,https://twitter.com/drkatemarvel?lang=en,40.712775,-74.005973,"New York, NY, USA",Male,Male,Male
279,Nzambi Matee,Founder,Gjenge Makers,Nairobi,Kenya,https://www.linkedin.com/in/nzambi-matee-gjenge2017/?originalSubdomain=ke,-1.292066,36.821946,"Nairobi, Kenya",Male,Male,Male
280,Wanjira Mathai,Vice President and Regional Director,World Resources Institute (WRI),Nairobi,Kenya,https://twitter.com/mathaiwanjira?lang=en,-1.292066,36.821946,"Nairobi, Kenya",Male,Male,Male
281,Ajay Mathur,Director General,International Solar Alliance,New Delhi,India,https://www.linkedin.com/in/international-solar-alliance/,28.613939,77.209021,"New Delhi, India",Male,Male,Male
282,Ed Mazria,Chief Executive Officer,Architecture 2030,"Sante Fe, New Mexico",USA,https://www.linkedin.com/in/edward-mazria-5b0117129/ ,35.686975,-105.937799,"Sante Fe, New Mexico, USA",Male,Male,Male
283,Emilie Mazzacurati,Global Head of Climate Solutions,Moody's Corporation,"Berkeley, CA",USA,https://www.linkedin.com/in/emazzacurati/,37.871523,-122.273042,"Berkeley, CA, USA",Male,Male,Male
284,Linda McAvan,Executive Director,European Climate Foundation,London,United Kingdom,https://www.linkedin.com/in/linda-mcavan-610459161/,51.507218,-0.127586,"London, United Kingdom",Male,Male,Male
285,Gina McCarthy,National Climate Advisor; Former President,White House Office of Domestic Climate Policy; NRDC,"Boston, MA",USA,https://www.nrdc.org/experts/gina-mccarthy,42.360082,-71.05888,"Boston, MA, USA",Male,Male,Male
286,Jane McDonald,Executive Vice President,International Institute for Sustainable Development,Winnipeg,Canada,https://www.linkedin.com/in/jane-mcdonald-75695a66/ ,49.895136,-97.138374,"Winnipeg, Canada",Male,Male,Male
287,Don McIntyre,Managing Director and Chief Executive Officer,Impact Metrics,"Washington, D.C.",USA,https://www.linkedin.com/in/donmcintyre/,38.907192,-77.036871,"Washington, D.C., USA",Male,Male,Male
288,Kathleen McLaughlin,Chief Sustainability Officer,Walmart,"Bentonville, AR",USA,https://www.linkedin.com/in/kathleenforgood/,36.372854,-94.208817,"Bentonville, AR, USA",Male,Male,Male
289,Ndoni Mcunu,Bilateral Engagement Lead,SouthSouthNorth,Johannesburg,South Africa,https://www.linkedin.com/in/ndoni-mcunu-015bb68b/?originalSubdomain=za,-26.204103,28.047305,"Johannesburg, South Africa",Male,Male,Male
290,Erin Meezan,VP and Chief Sustainability Officer,Interface,"Atlanta, GA",USA,https://www.linkedin.com/in/erinmeezan/,33.748995,-84.387982,"Atlanta, GA, USA",Male,Male,Male
291,Marcelo Mena,"Former Environment Minister, Director","Climate Action Center at Pontificia Universidad Católica de Valparaíso, Chile Office of the Global Center on Adaptation",Santiago,Chile,https://www.linkedin.com/in/marcelo-mena-87a02914/?originalSubdomain=cl,-33.44889,-70.669266,"Santiago, Chile",Male,Male,Male
292,María Mendiluce,Chief Executive Officer,We Mean Business Coalition,Geneva,Switzerland,https://www.linkedin.com/in/mariamendiluce/,46.204391,6.143158,"Geneva, Switzerland",Male,Male,Male
293,Andreas Merkl,President,Ocean Conservancy,"Washington, D.C.",USA,https://www.linkedin.com/in/andreas-merkl-75449377/ ,38.907192,-77.036871,"Washington, D.C., USA",Male,Male,Male
294,Evan van Hook,Chief Sustainability Officer,Honeywell,"Morris Plains, NJ",USA,https://www.sandia.gov/about/BofM/vanhook.html,40.839592,-74.48187,"Morris Plains, NJ, USA",Male,Male,Male
295,Andrea Meza Murillo,Minister of Environment and Energy,Government of Costa Rica,San Jose,Costa Rica,https://www.linkedin.com/in/andrea-meza-a9730875/?originalSubdomain=cr,37.338208,-121.886329,"San Jose, Costa Rica",Male,Male,Male
296,Christopher Miller,Activism Manager; Former Director of Sustainability,Ben and Jerry's; Seventh Generation,"Burlington, VA",USA,https://www.linkedin.com/in/christopher-miller-6bb5b215/,44.475882,-73.212072,"Burlington, VA, USA",Male,Male,Male
297,Hamid Moghadam,Chairman & Chief Executive Officer,Prologis,"San Francisco, CA",USA,https://www.linkedin.com/in/hamid-moghadam-936026178/,37.77493,-122.419416,"San Francisco, CA, USA",Male,Male,Male
298,Ernest Moniz,President and Chief Executive Officer,Energy Futures Initiative,"Washington, D.C.",USA,https://www.linkedin.com/in/ernestmoniz/ ,38.907192,-77.036871,"Washington, D.C., USA",Male,Male,Male
299,Andrew Morlet,Chief Executive Officer,Ellen MacArthur Foundation,London,United Kingdom,https://www.linkedin.com/in/amorlet/,51.507218,-0.127586,"London, United Kingdom",Male,Male,Male
300,Jennifer Morris,Chief Executive Officer; Former President,The Nature Conservancy; Conservation International,"Washington, D.C.",USA,https://www.linkedin.com/in/jennifer-morris-934a426/ ,38.907192,-77.036871,"Washington, D.C., USA",Male,Male,Male
301,Rebekah Moses,Director of Impact Strategy,Impossible Foods,"San Francisco, CA",USA,https://www.linkedin.com/in/rebekahmoses/,37.77493,-122.419416,"San Francisco, CA, USA",Male,Male,Male
302,Rosette Muhoza,Co-founder,My Green Home,Kigali,Rwanda,http://mygreenhome.rw/,-1.944073,30.061885,"Kigali, Rwanda",Male,Male,Male
303,Musonda Mumba,Chief of Terrestrial Ecosystems Unit,United Nations Environment Programme,Nairobi,Kenya,https://www.linkedin.com/in/dr-musonda-mumba-aa09611/ ,-1.292066,36.821946,"Nairobi, Kenya",Male,Male,Male
304,Bob Mumgaard,Chief Executive Officer,Commonwealth Fusion Systems,"Boston, MA",USA,https://www.linkedin.com/in/mumgaard/,42.360082,-71.05888,"Boston, MA, USA",Male,Male,Male
305,Gonzalo Muñoz,High Level Climate Action Champion,COP25,Santiago,Chile,https://www.linkedin.com/in/gonzalomunozabogabir/ ,-33.44889,-70.669266,"Santiago, Chile",Male,Male,Male
306,Abdul Muqeet,Activist (The Paper Bag Boy),,Abu Dhabi,UAE,https://www.instagram.com/thepaperbagboy/,24.453884,54.377344,"Abu Dhabi, UAE",Male,Male,Male
307,Rose Mutiso,Research Director,Enegy for Growth,Nairobi,Kenya,https://www.linkedin.com/in/rosemutiso/?originalSubdomain=ke,-1.292066,36.821946,"Nairobi, Kenya",Male,Male,Male
308,Vanessa Nakate,Founder,Rise Up Movement,Kampala,Uganda,https://www.linkedin.com/in/vanessa-nakate-09156889/,0.347596,32.58252,"Kampala, Uganda",Male,Male,Male
309,Sunita Narain,Director General,Center for Science and Environment,Dehli,India,https://www.cseindia.org/page/sunita-narain,28.704059,77.10249,"Dehli, India",Male,Male,Male
310,Brian Nash,Director of Sustainability,Ingredion Incorporated,"Indianapolis, IN",USA,https://www.linkedin.com/in/brian-nash-05a57842/,39.768403,-86.158068,"Indianapolis, IN, USA",Male,Male,Male
311,Shloka Nath,Head of Sustainability and Special Projects,Tata Trusts,Mumbai,India,https://www.linkedin.com/in/shlokanath/,19.075984,72.877656,"Mumbai, India",Male,Male,Male
312,Kudakwashe (Kuda) Ndhlukula,Executive Director,SADC Centre for Renewable Energy & Energy Efficiency (SACREEE),Harare,Zimbabwe,https://www.linkedin.com/in/kudakwashe-kuda-ndhlukula-72420317/?miniProfileUrn=urn%3Ali%3Afs_miniProfile%3AACoAAANpYEwBu-pEk5gVbZM9OOgYA2lhW00TG5M,-17.821629,31.049226,"Harare, Zimbabwe",Male,Male,Male
313,Sarah Neff,Senior Vice President of Sustainability,Kilroy Realty Corporation,"Los Angeles, CA",USA,https://www.linkedin.com/in/sara-neff-4490b214/,34.052234,-118.243685,"Los Angeles, CA, USA",Male,Male,Male
314,Chad Nelsen,Chief Executive Officer,Surfrider Foundation,"Orange County, CA",USA,https://www.linkedin.com/in/chadnelsen/#:~:targetText=Chad%20Nelsen%20%2D%20Chief%20Executive%20Officer%20%2D%20Surfrider%20Foundation%20%7C%20LinkedIn ,33.717471,-117.831143,"Orange County, CA, USA",Male,Male,Male
315,Luisa Neubauer,Climate Activist,,Berlin,Germany,https://twitter.com/luisamneubauer?lang=en,52.520007,13.404954,"Berlin, Germany",Male,Male,Male
316,Alexander Nick,Head of Sustainability Strategy and Management,BMW,Munich,Germany,https://www.linkedin.com/in/alnick/,48.135125,11.58198,"Munich, Germany",Male,Male,Male
317,Måns Nilsson,Executive Director,SEI,Stockholm,Sweden,https://www.linkedin.com/in/m%C3%A5ns-nilsson-b330925/?originalSubdomain=se,59.329324,18.068581,"Stockholm, Sweden",Male,Male,Male
318,Stephen Nindi,Director General,National Land Use Planning Commission,Dar Es Salaam,Tanzania,https://www.linkedin.com/in/stephen-nindi-41125724/?originalSubdomain=tz,-6.792354,39.208328,"Dar Es Salaam, Tanzania",Male,Male,Male
319,Wawira Njiru,Founder and Executive Director,Food for Education,Nairobi,Kenya,https://twitter.com/wawiranjiru?lang=en,-1.292066,36.821946,"Nairobi, Kenya",Male,Male,Male
320,Ndidi Nnoli-Edozien,Chair,Circular Economy Innovation Partnership,Abuja,Nigeria,https://www.linkedin.com/in/dr-ndidi-nnoli-edozien-798649141/,9.076478,7.398574,"Abuja, Nigeria",Male,Male,Male
321,Antonio Nobre,Researcher,National Institute of Amazonian Research,São José dos Campos,Brazil,https://twitter.com/buscandoverdade?lang=en,-23.21984,-45.891566,"São José dos Campos, Brazil",Male,Male,Male
322,Indra Nooyi,Former Chairman and Chief Executive Officer,PepsiCo,"New York, NY",USA,https://www.linkedin.com/in/indranooyi/,40.712775,-74.005973,"New York, NY, USA",Male,Male,Male
323,Sean O'Brien,President and Chief Executive Officer,Nature Serve,"Arlington, VA",USA,https://www.linkedin.com/in/seanatnatureserve/,38.881621,-77.090981,"Arlington, VA, USA",Male,Male,Male
324,Robert O'Connor,Partner,Wilson Sonsini Goodrich & Rosati,"Corte Madera, CA",USA,https://www.linkedin.com/in/robert-o-connor-bba68934/,37.925481,-122.527476,"Corte Madera, CA, USA",Male,Male,Male
325,Collin O'Mara,President and Chief Executive Officer,National Wildlife Federation,"Reston, VA",USA,https://www.linkedin.com/in/collin-o-mara-536ba76/,38.958631,-77.357003,"Reston, VA, USA",Male,Male,Male
326,Claire O'Neill,"Managing Director of Climate and Energy, Former President","World Business Council, COP series",London,United Kingdom,https://www.linkedin.com/in/clairefordevizes/,51.507218,-0.127586,"London, United Kingdom",Male,Male,Male
327,Alexandria Ocasio-Cortez,U.S. Representative for NY-14,U.S. Congress,"Washington, D.C.",USA,https://twitter.com/AOC?ref_src=twsrc%5Egoogle%7Ctwcamp%5Eserp%7Ctwgr%5Eauthor,38.907192,-77.036871,"Washington, D.C., USA",Male,Male,Male
328,Damilola Ogunbiyi,Chief Executive Officer and Special Representative; Co-Chair,UN Secretary-General for Sustainable Energy for All; UN-Energy,Vienna,Austria,https://www.linkedin.com/in/damilola-ogunbiyi/,48.208174,16.373819,"Vienna, Austria",Male,Male,Male
329,Salma Okonkwo,Chairwoman,UBI Group,Accra,Ghana,https://www.linkedin.com/in/salma-okonkwo-a5171b1aa/,5.603717,-0.186964,"Accra, Ghana",Male,Male,Male
330,Michael Okoroafor,VP of Global Sustainability and Packaging Innovation,McCormick & Company,"Hunt Valley, MD",USA,https://www.linkedin.com/in/michael-okoroafor-ph-d-5a07b9a9/,39.490001,-76.658507,"Hunt Valley, MD, USA",Male,Male,Male
331,Cindy Ortega,Founder and Chief Executive Officer,Blue Heron Strategies,"Las Vegas, NV",USA,https://www.linkedin.com/in/cindy-ortega-38642898/,36.169941,-115.13983,"Las Vegas, NV, USA",Male,Male,Male
332,Michael Otto,Chairman of the Supervisory Board,The Otto Group,Hamburg,Germany,https://www.clubofrome.org/member/otto-michael/,53.551085,9.993682,"Hamburg, Germany",Male,Male,Male
333,Zitouni Ould-Dada,"Deputy Director of Climate Change, Biodiversity, and Environment",Food and Agriculture Organization of the United States,Paris,France,https://www.linkedin.com/in/zitouni-ould-dada-71170543/,48.856614,2.352222,"Paris, France",Male,Male,Male
334,Monique Oxender,Chief Sustainability Officer,Keurig Dr. Pepper,"Burlington, MA",USA,https://www.linkedin.com/in/moniqueoxender/,42.504716,-71.19562,"Burlington, MA, USA",Male,Male,Male
335,Goksenin Ozturkeri,Vice President,CohnReznick Capital,"San Francisco, CA",USA,https://www.linkedin.com/in/gozturkeri/,37.77493,-122.419416,"San Francisco, CA, USA",Male,Male,Male
336,Chrissa Pagitsas,Former VP and Head of ESG,Fannie Mae,"Washington, D.C.",USA,https://www.linkedin.com/in/chrissa-pagitsas/,38.907192,-77.036871,"Washington, D.C., USA",Male,Male,Male
337,Edward Palmieri,Director of Global Sustainability,Facebook,"Washington, D.C.",USA,https://www.linkedin.com/in/ejpalmieri/,38.907192,-77.036871,"Washington, D.C., USA",Male,Male,Male
338,Alexandra Palt,Executive Vice President and Chief Sustainability Officer,L'Oreal,Paris,France,https://www.linkedin.com/in/alexandra-palt-953133a/,48.856614,2.352222,"Paris, France",Male,Male,Male
339,Ridhima Pandey,Climate Activist,,Haridwar,India,https://twitter.com/ridhimapandey7?lang=en,29.945691,78.164248,"Haridwar, India",Male,Male,Male
340,Jyoti Parikh,Executive Director,Integrated Research and Action for Development,South Delhi,India,https://www.linkedin.com/in/jyoti-parikh-25b1707/,28.481655,77.187286,"South Delhi, India",Male,Male,Male
341,Carl Pendragon,Founder and Chief Executive Officer,Skymining,Stockholm,Sweden,https://www.linkedin.com/in/carl-pendragon-b4212a68/,59.329324,18.068581,"Stockholm, Sweden",Male,Male,Male
342,Bea Perez,Senior Vice President and Sustainability Officer,Coca-Cola Company,"Decatur, GA",USA,https://www.linkedin.com/in/bea-perez-8225919/,33.774828,-84.296312,"Decatur, GA, USA",Male,Male,Male
343,Charles Perry,"Special Projects and Aviation, High Level Climate Champion","Sustainable Future for All, COP26",London,United Kingdom,https://www.linkedin.com/in/charles-perry-3742932/,51.507218,-0.127586,"London, United Kingdom",Male,Male,Male
344,Jonas C. Peters,"Director of Resnick Sustainability Institute, Bren Professor of Chemistry",Caltech,"Pasadena, CA",USA,https://www.cce.caltech.edu/people/jonas-c-peters,34.147785,-118.144516,"Pasadena, CA, USA",Male,Male,Male
345,Nancy Pfund,Founder and Managing Partner,DBL Ventures,"San Francisco, CA",USA,https://www.linkedin.com/in/nancy-pfund-30b6ab13/,37.77493,-122.419416,"San Francisco, CA, USA",Male,Male,Male
346,Alberto Carrillo Pineda,Director of Science-Based Targets Initiative,CDP,Berlin,Germany,https://www.linkedin.com/in/acarrillopineda/?originalSubdomain=de,52.520007,13.404954,"Berlin, Germany",Male,Male,Male
347,Henrik Poulsen,Chief Executive Officer,Ørsted,Copenhagen,Denmark,https://www.linkedin.com/in/henrik-poulsen-155b22189/,55.676097,12.568337,"Copenhagen, Denmark",Male,Male,Male
348,Varshini Prakash,"Co-founder, Executive Director",Sunrise Movement,"Boston, MA",USA,https://twitter.com/VarshPrakash?ref_src=twsrc%5Egoogle%7Ctwcamp%5Eserp%7Ctwgr%5Eauthor,42.360082,-71.05888,"Boston, MA, USA",Male,Male,Male
349,Dany Qian,Global Vice President,Jinko Solar,Shanghai?,China,https://www.linkedin.com/in/晶-钱-b77039166/?originalSubdomain=cn,31.230416,121.473701,"Shanghai?, China",Male,Male,Male
350,"Yangshengjing ""UB"" Qiu",Partnership Development Executive,Green Monday,Shanghai,China,https://www.linkedin.com/in/yangshengjingqiu/?originalSubdomain=cn,31.230416,121.473701,"Shanghai, China",Male,Male,Male
351,Volker Quaschning,Professor of Renewable Energy Systems,NTW Berlin,Berlin,Germany,https://www.linkedin.com/in/quaschning/?originalSubdomain=de,52.520007,13.404954,"Berlin, Germany",Male,Male,Male
352,Kevin Rabinovitch,"Global VP, Sustainability and Chief Climate Officer","Mars, Inc.","Mclean, VA",USA,https://www.linkedin.com/in/kevin-rabinovitch-4280735/,38.933868,-77.17726,"Mclean, VA, USA",Male,Male,Male
353,Mahesh Ramanujam,President and Chief Executive Officer,US Green Building Council,"Washington, D.C.",USA,https://www.linkedin.com/in/mahesh-ramanujam-a95a85a/,38.907192,-77.036871,"Washington, D.C., USA",Male,Male,Male
354,Yasmin Rasyid,Founder/President,EcoKnights,Kuala Lumpur,Malaysia,https://www.linkedin.com/in/yasminrasyid/,3.139003,101.686855,"Kuala Lumpur, Malaysia",Male,Male,Male
355,Curtis Ravenel,"Finance Advisor, Senior Advisor to Mark Carney",COP26,"New York, NY",USA,https://www.linkedin.com/in/curtis-ravenel/,40.712775,-74.005973,"New York, NY, USA",Male,Male,Male
356,Kate Raworth,Author; Senior Research Associate; Professor of Practice,Doughnut Economics; Oxford University’s Environmental Change Institute; Amsterdam University of Applied Sciences,Oxford,United Kingdom,https://www.kateraworth.com/about/,36.3107,-78.590834,"Oxford, United Kingdom",Male,Male,Male
357,Assaad Razzouk,Chief Executive Officer at Gurīn Energy,Gurīn Energy,Singapore,Singapore,https://www.linkedin.com/in/assaadrazzouk/,1.352083,103.819836,"Singapore, Singapore",Male,Male,Male
358,Tony Reames,Assistant Professor of Energy Justice,School for Environment and Sustainability at the University of Michigan,"Ann Arbor, MI",USA,https://www.linkedin.com/in/tonygreames/,42.280826,-83.743038,"Ann Arbor, MI, USA",Male,Male,Male
359,Frank Rijsberman,Director General,Global Green Growth Institute,Seoul,South Korea,https://www.linkedin.com/in/frank-rijsberman-17841014/,37.566535,126.977969,"Seoul, South Korea",Male,Male,Male
360,Gregor Robertson,"Former Mayor of Vancouver, Global Ambassador",Global Covenant of Mayors for Climate and Energy,Vancouver,Canada,https://www.linkedin.com/in/gregor-robertson/?originalSubdomain=ca ,49.282729,-123.120738,"Vancouver, Canada",Male,Male,Male
361,John Robinson,Joan L. Tweedy Chair in Conservation Strategy,Wildlife Conservation Society,"Bronx, NY",USA,https://www.linkedin.com/in/john-g-robinson-67593312/,40.844782,-73.864827,"Bronx, NY, USA",Male,Male,Male
362,Vincent Roche,President and Chief Executive Officer,Analog Devices,"Norwood, MA",USA,https://www.analog.com/en/about-adi/corporate-information/executive-team/vincent-roche.html,42.194391,-71.19897,"Norwood, MA, USA",Male,Male,Male
363,Carlos Manuel Rodriguez,Chief Executive Officer and Chairperson,Global Environment Facility,San Jose,Costa Rica,https://www.linkedin.com/in/carlos-manuel-rodriguez-7442581b6/ ,37.338208,-121.886329,"San Jose, Costa Rica",Male,Male,Male
364,Majandra Rodriguez Acha,Co-founder,TierrActiva Peru,Lima,Peru,https://twitter.com/majandrraa?lang=en,-12.046373,-77.042754,"Lima, Peru",Male,Male,Male
365,Joe Rozza,Director of Sustainability and Resilience,Jacobs,"Atlanta, GA",USA,https://www.linkedin.com/in/joe-rozza-a8143b12/,33.748995,-84.387982,"Atlanta, GA, USA",Male,Male,Male
366,Michael Rucker,Chief Executive Officer and Founder,Scout Clean Energy,"Boulder, CO",USA,https://www.linkedin.com/in/michaelwrucker/,40.014986,-105.270546,"Boulder, CO, USA",Male,Male,Male
367,Frank Rukavina,President and Senior Advisor,Sustainable Innovations Operative,"Denver, CO",USA,https://www.linkedin.com/in/frank-rukavina/,39.739236,-104.990251,"Denver, CO, USA",Male,Male,Male
368,Jeffrey Sachs,Director,Columbia Center on Sustainable Development,"New York, NY",USA,https://www.linkedin.com/in/jeffrey-sachs-7494689a/,40.712775,-74.005973,"New York, NY, USA",Male,Male,Male
369,Thina Margreth Saltvedt,"Senior Advisor, Sustainable Finance",Nordea Bank,Oslo,Norway,https://www.linkedin.com/in/thina-margrethe-saltvedt-8163711/,59.913869,10.752245,"Oslo, Norway",Male,Male,Male
370,Cristian Samper,President and Chief Executive Officer,Wildlife Conservation Society,"New York, NY",USA,https://www.linkedin.com/in/cristian-samper-970898114/,40.712775,-74.005973,"New York, NY, USA",Male,Male,Male
371,Alvaro Sanchez,Environmental Equity Director,The Greenlining Institute,"San Francisco, CA",USA,https://www.linkedin.com/in/alvarossanchez/,37.77493,-122.419416,"San Francisco, CA, USA",Male,Male,Male
372,Viviana Alvarez Sanchez,Head of Sustainability,North America Unilever ,"New York, NY",USA,https://www.linkedin.com/in/viviana-alvarez-sanchez-6a21b43a/,40.712775,-74.005973,"New York, NY, USA",Male,Male,Male
373,M. Sanjayan,Chief Executive Officer,Conservation International,"Arlington, VA",USA,https://www.linkedin.com/in/m-sanjayan-7a9593b4/ ,38.881621,-77.090981,"Arlington, VA, USA",Male,Male,Male
374,Tedd Saunders,Founder and Chief Executive Officer,EcoLogical Solutions,"Boston, MA",USA,https://www.linkedin.com/in/tedd-saunders-a883a51/,42.360082,-71.05888,"Boston, MA, USA",Male,Male,Male
375,Monica Scatasta,"Director, Former Head of Division, Climate, Environment, and Social Policy","Council of Europe Development Bank, European Investment Bank",Luxembourg,Luxembourg,https://www.linkedin.com/in/monica-scatasta-b66089a/,49.815273,6.129583,"Luxembourg, Luxembourg",Male,Male,Male
376,Barney Schauble,"Head of Labs, Chairman; Director and Chair",Nephila Climate; Ceres,"Larkspur, CA",USA,https://www.linkedin.com/in/bschauble/,37.934092,-122.535254,"Larkspur, CA, USA",Male,Male,Male
377,Hans Joachim Schellnhuber,Founding Director,The Potsdam Institute for Climate Impact Research,Potsdam,Germany,https://twitter.com/PIK_Climate?ref_src=twsrc%5Egoogle%7Ctwcamp%5Eserp%7Ctwgr%5Eauthor,52.390569,13.064473,"Potsdam, Germany",Male,Male,Male
378,Daniel Schrag,Director of the Harvard University Center for the Environment.,Harvard University,"Cambridge, MA",USA,https://www.linkedin.com/in/daniel-schrag-6775b58/,42.373616,-71.109734,"Cambridge, MA, USA",Male,Male,Male
379,Gayle Schueller,Vice President and Chief Sustainability Officer,3M,"Minneapolis, MN",USA,https://www.linkedin.com/in/gayleschueller/,44.977753,-93.265011,"Minneapolis, MN, USA",Male,Male,Male
380,Klaus Schwab,Founder and Executive Chairman,World Economic Forum,Geneva,Switzerland,https://www.linkedin.com/in/klaus-schwab-80b285200/,46.204391,6.143158,"Geneva, Switzerland",Male,Male,Male
381,Daniel Schwartz,Director of Clean Energy Institute,University of Washington,"Seattle, WA",USA,https://www.linkedin.com/in/dt-schwartz/,47.60621,-122.332071,"Seattle, WA, USA",Male,Male,Male
382,Paul Ehrlich,"resident, Center for Conservation Biology, Bing Professor of Population Studies",Stanford University,"Palo Alto, CA",USA,https://ccb.stanford.edu/paul-r-ehrlich,37.441883,-122.14302,"Palo Alto, CA, USA",Male,Male,Male
383,Larry Selzer,President and Chief Executive Officer,The Conservation Fund,"Arlington, VA",USA,"https://www.conservationfund.org/our-experts/larry-selzer
https://www.linkedin.com/in/larry-selzer-b243239/ ",38.881621,-77.090981,"Arlington, VA, USA",Male,Male,Male
384,Aniket Shah,Senior Advisor for Sustainable Finance,Sustainable Development Solutions Network,"New York, NY",USA,https://www.linkedin.com/in/aniket-shah-phd-360a3635/ ,40.712775,-74.005973,"New York, NY, USA",Male,Male,Male
385,Durreen Shahnaz,Founder and Chief Executive Officer,Impact Investment Exchange,Singapore,Singapore,https://www.linkedin.com/in/durreenshahnaz/,1.352083,103.819836,"Singapore, Singapore",Male,Male,Male
386,Vicky Sharpe,Member Board of Directors; Former President and Chief Executive Officer,EfficiencyOne; Sustainable Development Technology Canada,Nova Scotia,Canada,https://www.linkedin.com/in/vicky-sharpe-3b584051/ ,44.681987,-63.744311,"Nova Scotia, Canada",Male,Male,Male
387,Andrew Sharpless,Chief Executive Officer,Oceana,"Washington, D.C.",USA,https://www.linkedin.com/in/andrew-sharpless-8844a4b/,38.907192,-77.036871,"Washington, D.C., USA",Male,Male,Male
388,Michael Shellenberger,President; Former President,Environmental Progress; The Breakthrough Institute,"Berkeley, CA",USA,https://www.linkedin.com/in/michael-shellenberger-019631a8/ ,37.871523,-122.273042,"Berkeley, CA, USA",Male,Male,Male
389,Suzanne Shelton,President and Chief Executive Officer,Shelton Group,"Knoxville, TN",USA,https://www.linkedin.com/in/suzanneshelton/,35.960638,-83.920739,"Knoxville, TN, USA",Male,Male,Male
390,Vandana Shiva,Founding Member,World Future Council,New Delhi,India,https://twitter.com/drvandanashiva?ref_src=twsrc%5Egoogle%7Ctwcamp%5Eserp%7Ctwgr%5Eauthor,28.613939,77.209021,"New Delhi, India",Male,Male,Male
391,Paul Shrivastava,Chief Sustainability Officer,Sustainability Institute at Penn State,"State College, PA",USA,https://directory.smeal.psu.edu/pxs993,40.793395,-77.860001,"State College, PA, USA",Male,Male,Male
392,Emily Shuckburgh,Director,Cambridge Zero at University of Cambridge,Cambridge,United Kingdom,https://www.linkedin.com/in/emily-shuckburgh-01750a4/,52.204267,0.114908,"Cambridge, United Kingdom",Male,Male,Male
393,Jennifer Silberman,VP of ESG,YETI,"Washington, D.C.",USA,https://www.linkedin.com/in/jennifer-silberman-3b40492/,38.907192,-77.036871,"Washington, D.C., USA",Male,Male,Male
394,Alicia Silva Villanueva,Founder and Chief Executive Officer,Revitaliza Consultores,Mexico City,Mexico,https://www.linkedin.com/in/aliciasilvasynergy/,19.432608,-99.133208,"Mexico City, Mexico",Male,Male,Male
395,Anne Simpson,Managing Investment Director for Board Governance and Sustainability,CalPERS,"Sacramento, CA",USA,https://www.linkedin.com/in/anne-simpson-a3024328/,38.581572,-121.4944,"Sacramento, CA, USA",Male,Male,Male
396,Paul Simpson,Chief Executive Officer,CDP,London,United Kingdom,https://www.linkedin.com/in/paulsimpsoncdp/,51.507218,-0.127586,"London, United Kingdom",Male,Male,Male
397,Kadri Simson,Commissioner for Energy,European Union,Estonia,Estonia,https://twitter.com/KadriSimson?ref_src=twsrc%5Egoogle%7Ctwcamp%5Eserp%7Ctwgr%5Eauthor,58.595272,25.013607,"Estonia, Estonia",Male,Male,Male
398,Inesh Singh,Chief Sustainability Officer,Sula Vineyards,Haryana,India,https://www.linkedin.com/in/ineshsingh/,29.058776,76.085601,"Haryana, India",Male,Male,Male
399,William Sisson,Executive Director,World Business Council for Sustainable Development,"Avon, CT",USA,https://www.linkedin.com/in/wsissonwbcsd/,41.80962,-72.830515,"Avon, CT, USA",Male,Male,Male
400,Varun Sivaram,Senior Director for Clean Energy & Innovation,US Special Presidential Envoy for Climate,"Washington, D.C.",USA,https://www.linkedin.com/in/varunsivaram/,38.907192,-77.036871,"Washington, D.C., USA",Male,Male,Male
401,Astrid Skarheim Onsum,Chief Executive Officer,Norsk Gjenvinning,Oslo,Norway,https://www.linkedin.com/in/astrid-skarheim-onsum-7a34b01/,59.913869,10.752245,"Oslo, Norway",Male,Male,Male
402,Jim Skea,Professor of Sustainable Energy,Imperial College London,London,United Kingdom,https://www.imperial.ac.uk/people/j.skea,51.507218,-0.127586,"London, United Kingdom",Male,Male,Male
403,Scott Skinner,President and Chief Executive Officer,Clean Foundation,Nova Scotia,Canada,https://www.linkedin.com/in/scott-skinner-8369011/ ,44.681987,-63.744311,"Nova Scotia, Canada",Male,Male,Male
404,Timothy Skone,Senior Environmental Engineer,"U.S. Department of Energy, National Energy Technology Labratory","Irwin, PA",USA,https://www.linkedin.com/in/timothy-skone-b3578479/,40.324514,-79.701155,"Irwin, PA, USA",Male,Male,Male
405,Andrew Smith,"Sr. Manager, Global Energy Management and Sustainability",Cisco,"Boulder, CO",USA,https://www.linkedin.com/in/andrew-smith-94ba585/,40.014986,-105.270546,"Boulder, CO, USA",Male,Male,Male
406,Merran Smith,Executive Director,Clean Energy Canada,Victoria,Canada,https://www.linkedin.com/in/merran-smith-64603b63/ ,36.994874,-78.22722,"Victoria, Canada",Male,Male,Male
407,Alwyn Smith,Chairman,Southern African Alternative Energy Association (SAAEA),Johannesburg,South Africa,https://www.linkedin.com/in/saaea/,-26.204103,28.047305,"Johannesburg, South Africa",Male,Male,Male
408,Valerie Smith,Chief Sustainability Officer,CitiBank,"New York, NY",USA,https://www.linkedin.com/in/valerie-smith-98aa326/,40.712775,-74.005973,"New York, NY, USA",Male,Male,Male
409,Bren Smith,Co-Executive Director and Co-Founder,GreenWave,"Long Island Sound, CT",USA,https://www.greenwave.org/team ,41.074845,-72.946057,"Long Island Sound, CT, USA",Male,Male,Male
410,Youba Sokona,Coordinator of the African Climate Policy Centre,United Nations Economic Commission for Africa (UNECA),Bamako,Mali,https://www.linkedin.com/in/youba-sokona-01b1b721/,12.639232,-8.002889,"Bamako, Mali",Male,Male,Male
411,Preeti Soni,"Chief of Climate Change, Resilience, and Energy",United Nations Development Programme (UNDP),Delhi,India,https://www.linkedin.com/in/preeti-soni-917b667/,28.704059,77.10249,"Delhi, India",Male,Male,Male
412,Dominique Souris,Co-Founder and Executive Director,Youth Climate Lab,Ontario,Canada,https://www.linkedin.com/in/dominiquesouris/ ,51.253775,-85.323214,"Ontario, Canada",Male,Male,Male
413,Katrina Spade,Founder and Chief Executive Officer,Recompose,"Seattle, WA",USA,https://www.linkedin.com/in/katrina-spade-37047439/,47.60621,-122.332071,"Seattle, WA, USA",Male,Male,Male
414,Kaushik Sridhar,Group Manager of Social Responsibility and ESG Reporting,Evolution Mining,Sydney,Australia,https://www.linkedin.com/in/kaushiksridhar83/,-33.86882,151.209296,"Sydney, Australia",Male,Male,Male
415,Kushagra Srivastava,Chief Executive Officer,Chakr Innovation,Delhi,India,https://www.linkedin.com/in/kushagra-srivastava-b68b2787/,28.704059,77.10249,"Delhi, India",Male,Male,Male
416,Matt St. Clair,Director of Sustainability,University of California - Office of the President,"Oakland, CA",USA,https://www.linkedin.com/in/matt-st-clair-e-mail-6186b0/,37.804351,-122.271164,"Oakland, CA, USA",Male,Male,Male
417,Chris Stark,Chief Ececutive,UK's Climate Change Committee (CCC),London,United Kingdom,https://www.linkedin.com/in/chris-stark-06b21a30/?originalSubdomain=uk,51.507218,-0.127586,"London, United Kingdom",Male,Male,Male
418,Will Steffen,Councillor,Climate Council of Australia,Canberra,Australia,https://www.linkedin.com/in/will-steffen-92990514/?originalSubdomain=au,-35.280937,149.130009,"Canberra, Australia",Male,Male,Male
419,Emma Stewart,Chief Sustainability Officer,Netflix,"San Francisco, CA",USA,https://www.linkedin.com/in/emmastewart/,37.77493,-122.419416,"San Francisco, CA, USA",Male,Male,Male
420,Tom Steyer,Founder,NextGen America,"San Francisco, CA",USA,https://www.linkedin.com/in/tomsteyer/,37.77493,-122.419416,"San Francisco, CA, USA",Male,Male,Male
421,Elaine Strunk,Director of Global Sustainability,McDonalds,"Chicago, IL",USA,https://www.linkedin.com/in/elainestrunk/,41.878114,-87.629798,"Chicago, IL, USA",Male,Male,Male
422,Paven Sukhdev,Founder and Author,Corporation 2020,Nyon,Switzerland,https://www.linkedin.com/in/pavan-sukhdev-2780a614/?originalSubdomain=ch,46.383268,6.234785,"Nyon, Switzerland",Male,Male,Male
423,Sean Sweeney,"Director of the International Program on Labor, Climate & Environment; Coordinator",School of Labor and Urban Studies at City University of New York; Trade Unions for Energy Democracy,"Brooklyn, NY",USA,https://www.linkedin.com/in/sean-sweeney-6484a738/ ,40.678178,-73.944158,"Brooklyn, NY, USA",Male,Male,Male
424,Mark Swilling,Professor,Stellenbosch University,Cape Town,South Africa,https://www.linkedin.com/in/mark-swilling-31b7426/,-33.924868,18.424055,"Cape Town, South Africa",Male,Male,Male
425,Meghna Tare,Chief Sustainability Officer,University of Texas - Arlington,"Dallas, TX",USA,https://www.linkedin.com/in/meghnatare/,32.776664,-96.796988,"Dallas, TX, USA",Male,Male,Male
426,Izabella Teixeira,Co-Chair; Former Minister of the Environment,UNEP International Resource Panel; Brazil,Rio de Janeiro,Brazil,https://www.linkedin.com/in/izabella-monica-teixeira-she-her-66405812a/?originalSubdomain=br,-22.906847,-43.172896,"Rio de Janeiro, Brazil",Male,Male,Male
427,Emilio Tenuta,Vice President Corporate Sustainability,Ecolab,"Saint Paul, MN",USA,https://www.linkedin.com/in/emilio-tenuta-670846/,44.953703,-93.089958,"Saint Paul, MN, USA",Male,Male,Male
428,Mark Tercek,"Chief Instigator, Former President and Chief Executive Officer","The Instigator, The Nature Conservancy","Washington, D.C.",USA,https://www.linkedin.com/in/marktercek/ ,38.907192,-77.036871,"Washington, D.C., USA",Male,Male,Male
429,Bryant Terry,Author,Ten Speed Press,"San Francisco, CA",USA,https://www.linkedin.com/in/bryant-terry-54b9033/,37.77493,-122.419416,"San Francisco, CA, USA",Male,Male,Male
430,Filagot Tesfaye,President and Founder,Ethiopian Women in Energy network,Addis Ababa,Ethiopia,https://w4c.org/profile/addis-ababa-filagot-tesfaye http://ewien.org/about/team/filagot-tesfaye/,8.980603,38.75776,"Addis Ababa, Ethiopia",Male,Male,Male
431,Devi Thant Sin,Founder,Myanmar Green Network,Yangon,Myanmar,https://news.mongabay.com/2017/01/myanmars-green-princess-is-a-humble-activist-on-a-mission/,16.840939,96.173526,"Yangon, Myanmar",Male,Male,Male
432,Kim Thomassin,Executive Vice-President and Head of Investments in Québec and Stewardship Investing,CDPQ,Montreal,Canada,https://www.linkedin.com/in/kim-thomassin-794682/ ,45.501689,-73.567256,"Montreal, Canada",Male,Male,Male
433,Greta Thunberg,Social Media Climate Activist,,Stockholm,Sweden,https://www.instagram.com/gretathunberg/,59.329324,18.068581,"Stockholm, Sweden",Male,Male,Male
434,Paul Torcellini,Principal Engineer,National Renewable Energy Laboratory,"Golden, CO",USA,https://www.linkedin.com/in/paul-torcellini-b17562209/ ,39.755543,-105.2211,"Golden, CO, USA",Male,Male,Male
435,Robert Tournay,Head of Sustainability,PwC,"New York, NY",USA,https://www.linkedin.com/in/robert-tournay-7913ba6a/,40.712775,-74.005973,"New York, NY, USA",Male,Male,Male
436,Vien Truong,Senior Director of Engagement and Global Sustainability,Nike,"San Francisco, CA",USA,https://www.linkedin.com/in/vien-truong-40109118/,37.77493,-122.419416,"San Francisco, CA, USA",Male,Male,Male
437,Laurence Tubiana,President and Chief Executive Officer,European Climate Foundation,Paris,France,https://www.linkedin.com/in/laurence-tubiana-4381314/,48.856614,2.352222,"Paris, France",Male,Male,Male
438,Adair Turner,Chair,The Energy Transitions Commission,London,United Kingdom,https://www.oecd.org/greengrowth/GGSD%202019_Bio_Turner.pdf,51.507218,-0.127586,"London, United Kingdom",Male,Male,Male
439,Marinel Sumook Ubaldo,Climate Activist,,Manila,Philippines,https://www.instagram.com/mrnlsmkbld/?hl=en,14.599512,120.98422,"Manila, Philippines",Male,Male,Male
440,Sally Uren,Chief Executive Officer,Forum for the Future,London,United Kingdom,https://www.linkedin.com/in/dr-sally-uren-97b90624/,51.507218,-0.127586,"London, United Kingdom",Male,Male,Male
441,Helena Molin Valdes,Head of Secretariat,Climate and Clean Air Coalition,Paris,France,https://www.linkedin.com/in/helena-molin-valdes-7a222748/,48.856614,2.352222,"Paris, France",Male,Male,Male
442,Diwigdi Valiente,Head of Sustainability,Panamanian Ministry of Tourism,Panama City,Panama,https://www.linkedin.com/in/diwigdi-valiente-19a25591/?originalSubdomain=pa,30.158813,-85.660206,"Panama City, Panama",Male,Male,Male
443,Wouter van Tol,"Head of Government, Community Affairs, and Sustainability",DS Smith,London,United Kingdom,https://www.linkedin.com/in/woutervantol/,51.507218,-0.127586,"London, United Kingdom",Male,Male,Male
444,Nancy Vandycke,Program Manager,Sustainable Mobility for All,"Washington, D.C.",USA,https://www.linkedin.com/in/nancy-vandycke/ ,38.907192,-77.036871,"Washington, D.C., USA",Male,Male,Male
445,Francisco Vera,Founder,Guardianes Por La Vida,Villeta,Colombia,https://twitter.com/franciscoactiv2?ref_src=twsrc%5Egoogle%7Ctwcamp%5Eserp%7Ctwgr%5Eauthor,5.011706,-74.470362,"Villeta, Colombia",Male,Male,Male
446,David Victor,Professor; Center for Global Transformation Endowed Chair in Innovation and Public Policy,University of California San Diego,"La Jolla, CA",USA,https://gps.ucsd.edu/faculty-directory/david-victor.html,32.832811,-117.271272,"La Jolla, CA, USA",Male,Male,Male
447,Colleen Vien,Sustainability Director,Timberland,"Beverely, MA",USA,https://www.linkedin.com/in/colleen-vien/,42.558428,-70.880049,"Beverely, MA, USA",Male,Male,Male
448,Martin Visbeck,Head of Research,GeoMar,Kiel,Germany,https://www.linkedin.com/in/martin-visbeck-6b5b936b/,54.323293,10.122765,"Kiel, Germany",Male,Male,Male
449,Kotchakorn Voraakhom,Chairwoman of Climate Change Working Group,"International Federation of Landscape Architects, World",Bangkok City,Thailand,https://www.linkedin.com/in/kotch-voraakhom/?originalSubdomain=th,32.799167,-96.779444,"Bangkok City, Thailand",Male,Male,Male
450,Lisa Walker,Chief Executive Officer,Ecosphere+,South Nutfield,United Kingdom,https://www.linkedin.com/in/lisa-walker-0286758/,51.239766,-0.125163,"South Nutfield, United Kingdom",Male,Male,Male
451,Jason Walters,Former Director of Sustainability,Pearson Plc,"New York, NY",USA,https://www.linkedin.com/in/jason-walters-307a881/,40.712775,-74.005973,"New York, NY, USA",Male,Male,Male
452,Miranda Wang,Co-Founder and Chief Executive Officer,Novoloop,"Menlo Park, CA",USA,https://www.linkedin.com/in/mirandaywwang/,37.45296,-122.181725,"Menlo Park, CA, USA",Male,Male,Male
453,John Warner,Distinguished Research Fellow,Zymergen,"Wilmington, MA",USA,https://www.linkedin.com/in/john-warner-5681177/,42.548171,-71.172447,"Wilmington, MA, USA",Male,Male,Male
454,Elizabeth Wanjiru Wathuti,Founder,Green Generation Initiative (GGI),Nairobi,Kenya,https://www.linkedin.com/in/elizabeth-wathuti-8415a299/,-1.292066,36.821946,"Nairobi, Kenya",Male,Male,Male
455,Andrew Watterson,President and Founder; Former Head of Sustainability,Blue CSR Strategies; KeyBank,"Cleveland, OH",USA,https://www.linkedin.com/in/andrew-watterson/,41.49932,-81.69436,"Cleveland, OH, USA",Male,Male,Male
456,Karen Wayland,Chief Executive Officer,kW Energy Strategies,"Washington, D.C.",USA,https://www.linkedin.com/in/karen-wayland-87228310/,38.907192,-77.036871,"Washington, D.C., USA",Male,Male,Male
457,Bill Weihl,Founder and Executive Director,ClimateVoice,"San Francisco, CA",USA,https://www.linkedin.com/in/bweihl/,37.77493,-122.419416,"San Francisco, CA, USA",Male,Male,Male
458,Mary Wenzel,EVP and Head of Sustainability and ESG Integration,Wells Fargo,"Denver, CO",USA,https://www.linkedin.com/in/mary-wenzel-78505815/,39.739236,-104.990251,"Denver, CO, USA",Male,Male,Male
459,Melati Wijsen,Co-founder,Bye Bye Plastic Bags,Bali,Indonesia,https://www.linkedin.com/in/melati-wijsen-282057187/?originalSubdomain=id https://www.weforum.org/people/melati-wijsen,-8.409518,115.188916,"Bali, Indonesia",Male,Male,Male
460,Katharine Wilkinson,Co-Founder,The All We Can Save Project,"Atlanta, GA",USA,https://www.linkedin.com/in/katharine-k-wilkinson/,33.748995,-84.387982,"Atlanta, GA, USA",Male,Male,Male
461,Kate Williams,Chief Executive Officer,1% for the Planet,"Burlington, VT",USA,https://www.linkedin.com/in/katewilliams87/,44.475882,-73.212072,"Burlington, VT, USA",Male,Male,Male
462,Allison Wolff,Chief Executive Officer,Vibrant Planet,"Incline Village, NV",USA,https://www.linkedin.com/in/allisonclairwolff/,39.249683,-119.952685,"Incline Village, NV, USA",Male,Male,Male
463,Kam-sing Wong,Secretary for the Environment,Hong Kong,Hong Kong,China,https://www.gov.hk/en/about/govdirectory/po/sen.htm,22.319304,114.169361,"Hong Kong, China",Male,Male,Male
464,Mary Wroten,Director of Global Sustainability,Ford Motor Company,"Dexter, MI",USA,https://www.linkedin.com/in/mary-a-wroten-34a3459/,42.33837,-83.888555,"Dexter, MI, USA",Male,Male,Male
465,Michelle Wyman,Executive Director,Global Council for Science and the Environment,"Washington, D.C.",USA,linkedin.com/in/miwyman,38.907192,-77.036871,"Washington, D.C., USA",Male,Male,Male
466,Ion Yadigaroglu,Co-Founder and Partner,Capricorn Investment Group,"New York, NY",USA,https://www.linkedin.com/in/ion-yadigaroglu-6042b0/,40.712775,-74.005973,"New York, NY, USA",Male,Male,Male
467,Shannon Yee,Associate Professor,Georgia Institute of Technology,"Atlanta, GA",USA,https://www.linkedin.com/in/shannon-yee-75010520/,33.748995,-84.387982,"Atlanta, GA, USA",Male,Male,Male
468,Ruth Yeoh,executive director,YTL Singapore Pte LTD,Singapore,Singapore,https://www.linkedin.com/in/ruth-yeoh-0681174/,1.352083,103.819836,"Singapore, Singapore",Male,Male,Male
469,David Yeung,Co-Founder and Chief Executive Officer,Green Monday,Hong Kong,China,https://www.linkedin.com/in/greenmonday-david/,22.319304,114.169361,"Hong Kong, China",Male,Male,Male
470,Jason Youner,Founder and Chief Executive Officer,Companies vs Climate Change Sustainability Consulting,"New York, NY",USA,https://www.linkedin.com/in/jasonyouner/,40.712775,-74.005973,"New York, NY, USA",Male,Male,Male
471,Eva Zabey,Executive Director,Business for Nature,Geneva,Switzerland,https://www.linkedin.com/in/eva-zabey-2915403/,46.204391,6.143158,"Geneva, Switzerland",Male,Male,Male
472,Zhang Boju,Director General,Friends of Nature,Beijing,China,https://twitter.com/fon_china?lang=en,39.9042,116.407396,"Beijing, China",Male,Male,Male
473,Wenchun Zheng,Founder of Blue Ribbon Ocean Conservation,Blue Ribbon Ocean Conservation,Hainan,China,http://www.ch-blueocean.org/,19.566395,109.949686,"Hainan, China",Male,Male,Male
474,Minister XIE Zhenhua,Special Envoy on Climate Change,China,Beijing,China,https://cciced.eco/about/composition/executive-committee/xie-zhenhua/,39.9042,116.407396,"Beijing, China",Male,Male,Male
475,Cathy Zoi,Chief Executive Officer,EVgo,"Los Angeles, CA",USA,https://www.linkedin.com/in/cathy-zoi-60016a60/,34.052234,-118.243685,"Los Angeles, CA, USA",Male,Male,Male
476,Bertha Zúñiga Cáceres,General Coordinator,Civic Council of Popular and Indigenous Organizations of Honduras,La Esperanza,Honduras,https://www.equaltimes.org/environmentalists-in-honduras?lang=en#.YNzDR-hKhPZ,38.69367,-75.388038,"La Esperanza, Honduras",Male,Male,Male
477,Frank Bainimarama,Prime Minister,The Republic of Fiji,Suva,Fiji,https://twitter.com/FijiPM?ref_src=twsrc%5Egoogle%7Ctwcamp%5Eserp%7Ctwgr%5Eauthor,-18.140505,178.423251,"Suva, Fiji",Male,Male,Male
478,JB Straubel,Chief Executive Officer,Redwood Materials,"Carson City, NV",USA,https://www.linkedin.com/in/jb-straubel-b694981,39.163798,-119.767403,"Carson City, NV, USA",Male,Male,Male
479,Gregorio Díaz Mirabal,General Coordinator,Indigenous Organizations of the Amazon Basin (COICA),Caracas,Venezuela,https://www.facebook.com/josegregorio.diazmirabal,10.480594,-66.903606,"Caracas, Venezuela",Male,Male,Male
480,Sônia Bone Guajajara,Coordinator,Articulação dos Povos Indígenas do Brasil (APIB),São Luís,Brazil,https://www.facebook.com/GuajajaraSonia/,-2.530672,-44.298895,"São Luís, Brazil",Male,Male,Male
481,David Hochschild,Chair,California Energy Commission,"San Francisco, CA",USA,https://www.linkedin.com/in/david-hochschild-1520106/,37.77493,-122.419416,"San Francisco, CA, USA",Male,Male,Male
482,Louise Fresco,President of the Executive Board,Wageningen University & Research,Wageningen,Netherlands,https://twitter.com/louiseofresco?lang=en,51.981224,5.658416,"Wageningen, Netherlands",Male,Male,Male
483,John Costlow,President,Sustainable Energy Fund,"Schnecksville, PA",USA,https://www.linkedin.com/in/johncostlow/,40.674911,-75.617899,"Schnecksville, PA, USA",Male,Male,Male
484,Arshak Makichyan,Climate Activist,,Moscow,Russia,https://twitter.com/MakichyanA?ref_src=twsrc%5Egoogle%7Ctwcamp%5Eserp%7Ctwgr%5Eauthor,55.755826,37.6173,"Moscow, Russia",Male,Male,Male
485,Tatiana Lanshina,Former Chairperson,ReGeneration 2030,Moscow,Russia,https://www.linkedin.com/in/tatiana-lanshina-44bb2b61/?originalSubdomain=ru,55.755826,37.6173,"Moscow, Russia",Male,Male,Male
486,Jerry Brown,Former Governor,State of California,"Colusa, CA",USA,https://governors.library.ca.gov/34-jbrown.html,39.214334,-122.009418,"Colusa, CA, USA",Male,Male,Male
487,Angela Merkel,Chancellor,Federal Republic of Germany,Berlin,Germany,https://www.bundeskanzlerin.de/bkin-en/angela-merkel/biography,52.520007,13.404954,"Berlin, Germany",Male,Male,Male
488,Paul Anastas,Director of the Center for Green Chemistry and Green Engineering,Yale University,"New Haven, CT",USA,https://environment.yale.edu/profiles/faculty/paul-anastas,41.308274,-72.927884,"New Haven, CT, USA",Male,Male,Male
489,James Anderson,Professor of Atmospheric Chemistry,Harvard University,Cambridge. MA,USA,https://www.seas.harvard.edu/person/james-anderson,42.373616,-71.109734,"Cambridge. MA, USA",Male,Male,Male
490,Burak Cakman,Former Dean of Fashion,Parsons School of Design,London,United Kingdom,https://www.linkedin.com/in/burak-cakmak-2b8a4a1/?originalSubdomain=uk,51.507218,-0.127586,"London, United Kingdom",Male,Male,Male
