idx,Last Name(s),company,Title (as a thought leader),notes,City/State,Country,website,city,lat,lng,tax1,tax2,tax3
0,Abiola-Awe,Oluwadabira Abiola-Awe,Ventures & Solutions Movement Associate,Student Energy,Lagos,Nigeria,https://www.linkedin.com/in/oluwadabira-abiola-awe-200649189/,"Lagos, Nigeria",6.524379,3.379206,Male,Male,Male
1,Achapka,Priscilla Achapka,Global President,Women Environmental Programme,Abuja,Nigeria,https://wepnigeria.net/index.php/team/priscilla-achakpa/,"Abuja, Nigeria",9.076478,7.398574,Male,Male,Male
2,Adams,Justin Adams,Executive Director,Tropical Forest Alliance,Oxford,United Kingdom,https://www.linkedin.com/in/justin-adams-a074722/,"Oxford, United Kingdom",51.752021,-1.257726,Male,Male,Male
3,Adler,Meredith Adler,Executive Director,Student Energy,Vancouver,Canada,https://www.linkedin.com/in/meredithadler/ ,"Vancouver, Canada",49.282729,-123.120738,Male,Male,Male
4,Aggarwal,Sonia Aggarwal,Former Chief Executive Officer,Energy Innovation,"San Francisco, CA",USA,https://www.linkedin.com/in/soniaaggarwal/,"San Francisco, CA, USA",37.77493,-122.419416,Male,Male,Male
5,Agya Utama,Nuki Agya Utama,Executive Director at ASEAN Centre for Energy,ASEAN center for Energy,Jakarta,Indonesia,https://www.linkedin.com/in/nuki-agya-utama-phd-99450018/,"Jakarta, Indonesia",-6.208763,106.845599,Male,Male,Male
6,Alden,Leslie Alden,Co-Founder and Executive Director,DRAWDOWN Bay Area,"San Francisco, CA",USA,https://www.linkedin.com/in/leslie-alden-a134aa11/,"San Francisco, CA, USA",37.77493,-122.419416,Male,Male,Male
7,Aldridge,Jessica Aldridge,Director of Sustainability and Zero Watse Programs,Athens Services,"Los Angeles, CA",USA,https://www.linkedin.com/in/jessicaaldridgegreenbean/,"Los Angeles, CA, USA",34.052234,-118.243685,Male,Male,Male
8,AlJameel,Ahmed AlJameel,International Climate & Energy Policy Analyst at Ministry of Energy,Saudi Arabia Ministry of Energy,Riyadh,Saudi Arabia,https://www.linkedin.com/in/ahmed-aljameel-msc-394b4649/,"Riyadh, Saudi Arabia",24.713552,46.675296,Male,Male,Male
9,Alonso-Martinez,Manuel Alonso-Martinez,Executive Director,Earth Team,"El Sobrante, CA",USA,https://www.linkedin.com/in/manuel-alonso-martinez-b14aa220/,"El Sobrante, CA, USA",37.977145,-122.295247,Male,Male,Male
10,Alzelzela,Fatemah Alzelzela,Founder,EcoStar,Kuwait City,Kuwait,https://www.instagram.com/eco.star.kw/?hl=en,"Kuwait City, Kuwait",29.375859,47.977405,Male,Male,Male
11,Amador,Giana Amador,Founder and Policy Director,Carbon 180,"Oakland, CA",USA,https://www.linkedin.com/in/gianaamador/,"Oakland, CA, USA",37.804351,-122.271164,Male,Male,Male
12,Ambrose,Kristal Ambrose,Founder,Bahamas Plastic Movement,Eleuthera,The Bahamas,https://www.goldmanprize.org/recipient/kristal-ambrose/,"Eleuthera, The Bahamas",24.931446,-76.189966,Male,Male,Male
13,Amin,Adnan Amin,Former Director General,International Renewable Energy Agency (IRENA),"Cambridge, MA",USA,https://www.linkedin.com/in/adnan-amin/,"Cambridge, MA, USA",42.373616,-71.109734,Male,Male,Male
14,Anastas,Paul Anastas,Director of the Center for Green Chemistry and Green Engineering,Yale University,"New Haven, CT",USA,https://environment.yale.edu/profiles/faculty/paul-anastas,"New Haven, CT, USA",41.308274,-72.927884,Male,Male,Male
15,Andersen,Inger Andersen,Director-General,International Union for Conservation of Nature (IUCN),Nairobi,Kenya,https://www.unep.org/people/inger-andersen,"Nairobi, Kenya",-1.292066,36.821946,Male,Male,Male
16,Attenborough,David Attenborough,Broadcaster,,London,United Kingdom,https://twitter.com/attenboroughsir?lang=en,"London, United Kingdom",51.507218,-0.127586,Male,Male,Male
17,Azevedo,Tasso Azevedo,Founder,Imaflora,São Paulo,Brazil,https://www.linkedin.com/in/tassoazevedo/?originalSubdomain=br  https://www.ted.com/speakers/tasso_azevedo,"São Paulo, Brazil",-23.555771,-46.639557,Male,Male,Male
18,Baba Muniri,Alhassan Baba Muniri,Co-Founder,Recycle Up! Ghana,Berlin,Germany,https://www.linkedin.com/in/alhassan-baba-muniru-46b55828/,"Berlin, Germany",52.520007,13.404954,Male,Male,Male
19,Backer,Benji Backer,Founder and President,American Conservation Coalition,"Appleton, WI",USA,https://www.linkedin.com/in/benjibacker/,"Appleton, WI, USA",44.261931,-88.415385,Male,Male,Male
20,Baddache,Farid Baddache,Chief Executive Officer and Co-Founder,Ksapa,Paris,France,https://www.linkedin.com/in/farid-baddache/,"Paris, France",48.856614,2.352222,Male,Male,Male
21,Baggs,David Baggs,Chief Executive Officer and Program Director,Global Green Tag,Brisbane,Australia,https://www.linkedin.com/in/ecolabel-green-product-certification-transparency-cradle-to-cradle-declare/?originalSubdomain=au,"Brisbane, Australia",-27.470453,153.026034,Male,Male,Male
22,Bahri,Akissa Bahri,"Former Minister, Professor","Agriculture, Water Resources and Fisheries/National Agricultural Institute of Tanzania",Tunis,Tunisia,https://inweh.unu.edu/governance/iac/akissa-bahri/,"Tunis, Tunisia",36.806495,10.181532,Male,Male,Male
23,Bainimarama,Frank  Bainimarama,Prime Minister,The Republic of Fiji,Suva,Fiji,https://twitter.com/FijiPM?ref_src=twsrc%5Egoogle%7Ctwcamp%5Eserp%7Ctwgr%5Eauthor,"Suva, Fiji",-18.140505,178.423251,Male,Male,Male
24,Baker,Shalanda Baker,Deputy Director for Energy Justice ,"Office of Economic Impact and Development, US Department of Energy","Washington, DC",USA,https://www.linkedin.com/in/shalanda-baker-13a607205/,"Washington, DC, USA",38.907192,-77.036871,Male,Male,Male
25,Bakker,Peter Bakker,President,World Business Council for Sustainable Development,Geneva,Switzerland,https://www.linkedin.com/in/peter-bakker-14a13638/,"Geneva, Switzerland",46.204391,6.143158,Male,Male,Male
26,Ballin,Lee Ballin,Head of Business Development and Sustainability,Bloomberg NEF,"New York, NY",USA,https://www.linkedin.com/in/lee-ballin-85aa2033/,"New York, NY, USA",40.712775,-74.005973,Male,Male,Male
27,Bande,Charlotte Bande,Global Head of Climate Strategy,Quantis International,"San Diego, CA",USA,https://www.linkedin.com/in/charlotte-bande/,"San Diego, CA, USA",32.715738,-117.161084,Male,Male,Male
28,Basel,Sharon Basel,Senior Manager of Sustainability,General Motors,"Detroit, MI",USA,https://www.linkedin.com/in/sharonbasel/,"Detroit, MI, USA",42.331427,-83.045754,Male,Male,Male
29,Bassiere,Nestor Batio Bassiere,"Minister of Environment, Climate Change, and Green Economy",Burkina Faso,Ouagadougou,Burkina Faso,https://www.linkedin.com/in/batio-nestor-bassiere-6036a450/?originalSubdomain=bf,"Ouagadougou, Burkina Faso",12.371428,-1.51966,Male,Male,Male
30,Bastida,Xiye Bastida,Lead Organizer,Fridays for Future,"New York, NY",USA,https://www.linkedin.com/in/xiye-bastida-377394199/,"New York, NY, USA",40.712775,-74.005973,Male,Male,Male
31,Becker,Nicole Becker,Co-founder,Jóvenes por el Clima Argentina (Youth for Climate Argentina),Buenos Aires,Argentina,https://twitter.com/nickibeckerok?lang=en,"Buenos Aires, Argentina",-34.603684,-58.381559,Male,Male,Male
32,Beckham,Sophie Beckham,Chief Sustainability Officer,International Paper,"Ashville, NC",USA,https://www.linkedin.com/in/sophie-beckham-18209957/,"Ashville, NC, USA",35.595058,-82.551487,Male,Male,Male
33,Bellaguarda,Flavia Bellaguarda,Co-founder & Ambassador,Youth Climate Leaders,São Paulo,Brazil,https://www.linkedin.com/in/fl%C3%A1via-bellaguarda/,"São Paulo, Brazil",-23.555771,-46.639557,Male,Male,Male
34,Benisi,Mona Benisi,Global Head of Sustainability Real Assets,Morgan Stanley,"New York, NY",USA,https://www.linkedin.com/in/mona-benisi-64b00b68/,"New York, NY, USA",40.712775,-74.005973,Male,Male,Male
35,Benyus,Janine Benyus,Founder,Biomimicry Institute,"Stevensville, MT",USA,https://www.linkedin.com/in/janine-benyus-a5626/ ,"Stevensville, MT, USA",46.509922,-114.093159,Male,Male,Male
36,Berg,Christian Berg,University Lecturer,Kiel University,Heikendorf,Germany,https://www.linkedin.com/in/prof-dr-christian-berg-38150511/?locale=en_US,"Heikendorf, Germany",54.379377,10.211254,Male,Male,Male
37,Bergoglio,"His Holiness Pope Francis, Jorge Mario Bergoglio",Bishop of Rome; Author,Roman Catholic Church; Laudato Si',Vatican City ,Vatican City ,https://twitter.com/Pontifex?ref_src=twsrc%5Egoogle%7Ctwcamp%5Eserp%7Ctwgr%5Eauthor,"Vatican City , Vatican City",41.902916,12.453389,Male,Male,Male
38,Berlin,Ken Berlin,President and Chief Executive Officer,The Climate Reality Project,"Washington, DC",USA,https://www.linkedin.com/in/kberlin/,"Washington, DC, USA",38.907192,-77.036871,Male,Male,Male
39,Bernard,Mitchell Bernard,Chief Counsel,NRDC,"New York, NY",USA,https://www.nrdc.org/experts/mitchell-bernard,"New York, NY, USA",40.712775,-74.005973,Male,Male,Male
40,Bhargava,Apoorv Bhargava,Chief Executive Officer and Co-Founder,Weave Grid,"San Francisco, CA",USA,https://www.linkedin.com/in/apoorv-bhargava/,"San Francisco, CA, USA",37.77493,-122.419416,Male,Male,Male
41,Bierbaum,Rosina Bierbaum,Professor of Environmental Policy and Planning Climate + Energy,University of Michigan,"Ann Arbor, MI",USA,https://seas.umich.edu/research/faculty/rosina-bierbaum ,"Ann Arbor, MI, USA",42.280826,-83.743038,Male,Male,Male
42,bin Rashid Al Maktoum,H.H. Sheikh Mohammed bin Rashid Al Maktoum,Vice President and Prime Minister,UAE,Dubai,UAE,https://www.linkedin.com/in/mohammedbinrashid/?originalSubdomain=ae,"Dubai, UAE",25.204849,55.270783,Male,Male,Male
43,Birol,Fatih Birol,Executive Director,International Energy Agency (IEA),Paris,France,https://www.linkedin.com/in/fatih-birol-66862a195/,"Paris, France",48.856614,2.352222,Male,Male,Male
44,Blasco,José Luis Blasco,Global Sustainability Director,Acciona,Madrid,Spain,https://www.linkedin.com/in/joseluisblasco/,"Madrid, Spain",40.416775,-3.70379,Male,Male,Male
45,Boeve,May Boeve,Executive Director,350.org,"Brooklyn, NY",USA,https://twitter.com/mayboeve?lang=en,"Brooklyn, NY, USA",40.678178,-73.944158,Male,Male,Male
46,Bonita,Abby Bonita,Head of Sustainability Reporting and Compliance,MERALCO,Manila,Philippines,https://www.linkedin.com/in/abby-bonita-b7931365/,"Manila, Philippines",14.599512,120.98422,Male,Male,Male
47,Bouhia,Hynd Bouhia,President and Chief Executive Officer,Strategica,Rabat,Morocco,https://www.linkedin.com/in/hynd-bouhia-phd-0289a3a3/,"Rabat, Morocco",33.97159,-6.849813,Male,Male,Male
48,Boukhchina,Rim Boukhchina,Head of Sustainable Energy Policies and Member States Support Unit,RCREEE,Ben Arous,Tunisia,https://www.linkedin.com/in/rim-boukhchina-99bb686b/,"Ben Arous, Tunisia",36.7435,10.231976,Male,Male,Male
49,Boyd,Lisa Boyd,Senior Director of Corporate Responsibility and Sustainability,Target,"Minneapolis, MN",USA,https://www.linkedin.com/in/lmboyd/,"Minneapolis, MN, USA",44.977753,-93.265011,Male,Male,Male
50,Brandt,Kate Brandt,Chief Sustainability Officer,Google,"Mountain View, CA",USA,https://www.linkedin.com/in/katebrandt/,"Mountain View, CA, USA",37.386052,-122.083851,Male,Male,Male
51,Brannigan,Peggy Brannigan,"Senior Program Manager, Global Environmental Sustainability",LinkedIn,"San Francisco, CA",USA,https://www.linkedin.com/in/peggybrannigan/,"San Francisco, CA, USA",37.77493,-122.419416,Male,Male,Male
52,Bratter,Deanna Bratter,Head of Sustainable Development,Danone,"Lafayette, CO",USA,https://www.linkedin.com/in/deannabratter/,"Lafayette, CO, USA",39.993596,-105.089706,Male,Male,Male
53,Brinkema,Corey Brinkema,Chief Executive Officer,Forest Stewardship Council,"Minneapolis, MN",USA,https://www.linkedin.com/in/corey-brinkema-b529338/ ,"Minneapolis, MN, USA",44.977753,-93.265011,Male,Male,Male
54,Bromberg,Gidon Bromberg,Co-Founder and Israeli Director,EcoPeace Middle East,Tel Aviv,Israel,https://www.linkedin.com/in/gidon-bromberg-276504/?originalSubdomain=il,"Tel Aviv, Israel",32.0853,34.781768,Male,Male,Male
55,Brooks,Tim Brooks,VP of Environmental Sustainability and Corporate Responsibility,Lego,Billund,Denmark,https://www.linkedin.com/in/tim-brooks-48a5b09/?originalSubdomain=dk  https://www.fastcompany.com/person/tim-brooks,"Billund, Denmark",55.728449,9.112366,Male,Male,Male
56,Brown,Carol-Ann Brown,President,The Delphi Group,Calgary,Canada,https://www.linkedin.com/in/carol-ann-brown-37512923/?originalSubdomain=ca,"Calgary, Canada",51.044733,-114.071883,Male,Male,Male
57,Brown,Jerry Brown,Former Governor,State of California,"Colusa, CA",USA,https://governors.library.ca.gov/34-jbrown.html,"Colusa, CA, USA",39.214334,-122.009418,Male,Male,Male
58,Brune,Michael Brune,Executive Director,Sierra Club,"Oakland, CA",USA,https://www.linkedin.com/in/michael-brune-6805421b/,"Oakland, CA, USA",37.804351,-122.271164,Male,Male,Male
59,Brunel-Ligneau,Christine Brunel-Ligneau,Head of Sustainable Agriculture,Bayer AG CropScience Division,Düsseldorf,Germany,https://www.linkedin.com/in/christine-brunel-ligneau/?originalSubdomain=de,"Düsseldorf, Germany",51.227741,6.773456,Male,Male,Male
60,Buchanan,Marisa Buchanan,"Managing Director, Head of Sustainability",JP Morgan Chase & Co.,"New York, NY",USA,https://www.linkedin.com/in/marisa-buchanan-2b10206/,"New York, NY, USA",40.712775,-74.005973,Male,Male,Male
61,Buchner,Barbara Buchner,Global Managing Director,Climate Policy Initiative,"San Francisco, CA",USA,https://www.linkedin.com/in/barbara-buchner-3baaa86/,"San Francisco, CA, USA",37.77493,-122.419416,Male,Male,Male
62,Bullard,Robert Bullard,Distinguished Professor of Urban Planning at the Barbara Jordan-Mickey Leland School of Public Affairs,Texas Southern University,"Houston, TX",USA,https://www.linkedin.com/in/robert-bullard-7b471733/,"Houston, TX, USA",29.760427,-95.369803,Male,Male,Male
63,Bulus,Gloria  Bulus,Founder,Bridge That Gap Initiative,Kaduna ,Nigeria,https://www.linkedin.com/in/gloria-kasang-bulus-1b006830/?originalSubdomain=ng,"Kaduna , Nigeria",10.510464,7.416505,Male,Male,Male
64,Burston,Jane Burston,"Executive Director, Former Head of Climate and Environment","Clean Air Fund, UK NPL",London,United Kingdom,https://www.linkedin.com/in/janeburston/,"London, United Kingdom",51.507218,-0.127586,Male,Male,Male
65,Butler-Sloss,Sarah Butler-Sloss,Founder Director,Ashden,London,United Kingdom,https://www.linkedin.com/in/sarah-butler-sloss-3a310370/,"London, United Kingdom",51.507218,-0.127586,Male,Male,Male
66,Cakman,Burak Cakman,Former Dean of Fashion,Parsons School of Design,London,United Kingdom,https://www.linkedin.com/in/burak-cakmak-2b8a4a1/?originalSubdomain=uk,"London, United Kingdom",51.507218,-0.127586,Male,Male,Male
67,Calder,Sasha Calder,Head of Sustainability,Genomatica,"San Diego, CA",USA,https://www.linkedin.com/in/sashacalder/,"San Diego, CA, USA",32.715738,-117.161084,Male,Male,Male
68,"Cambridge, MA","James Cambridge, MA",Professor of Atmospheric Chemistry,Harvard University,Cambridge. MA,USA,https://www.seas.harvard.edu/person/james-anderson,"Cambridge. MA, USA",42.373616,-71.109734,Male,Male,Male
69,Cameron,James Cameron,Senior Advisor,"Pollination, Tulchan & SYSTEMIQ",London,United Kingdom,https://www.linkedin.com/in/jamescameron4/,"London, United Kingdom",51.507218,-0.127586,Male,Male,Male
70,Cameron,Lynelle Preston Cameron,Vice President of Sustainability; Chief Executive Officer of Autodesk Foundation,Autodesk,"San Francisco, CA",USA,https://www.linkedin.com/in/lynelle-preston-cameron-2b11591/,"San Francisco, CA, USA",37.77493,-122.419416,Male,Male,Male
71,Campanale,Mark Campanale,Founder and Executive Director,Carbon Tracker,London,United Kingdom,https://www.linkedin.com/in/mark-campanale-1886203/,"London, United Kingdom",51.507218,-0.127586,Male,Male,Male
72,Cao,Xiangkun (Elvis) Cao,Global Shaper,World Economic Forum,"Cambridge, MA",USA,https://www.linkedin.com/in/xiangkun-elvis-cao/?miniProfileUrn=urn%3Ali%3Afs_miniProfile%3AACoAABGYeU4BBddA4zIpSXAcA2ZUelcqtO6kDd8,"Cambridge, MA, USA",42.373616,-71.109734,Male,Male,Male
73,Cave,Etosha Cave,Co-Founder and Chief Science Officer,Twelve,"Berkeley, CA",USA,https://www.linkedin.com/in/etoshac/,"Berkeley, CA, USA",37.871523,-122.273042,Male,Male,Male
74,Changhua,Wu Changhua,Chief Executive Officer,Beijing Future Innovation Center,Beijing,China,https://www.linkedin.com/in/changhua-wu-a9495237/,"Beijing, China",39.9042,116.407396,Male,Male,Male
75,Cheikhrouhou,Hela  Cheikhrouhou,Regional Vice President,International Finance Corporation (IFC),Tunis,Tunisia,https://www.linkedin.com/in/hela-cheikhrouhou-69081010/,"Tunis, Tunisia",36.806495,10.181532,Male,Male,Male
76,Chen,Ted Chen,"Co-Founder, Chief Executive Officer, and Chief Product Architect",EverComm Singapore,Singapore,Singapore,https://www.linkedin.com/in/chiuhaochen/,"Singapore, Singapore",1.352083,103.819836,Male,Male,Male
77,Chew,Emily Chew,Executive Vice President and Chief Responsible Investment Officer,Calvert Research and Management,"New York, NY",USA,https://www.linkedin.com/in/chewemily/,"New York, NY, USA",40.712775,-74.005973,Male,Male,Male
78,Cho,Herry  Cho,"Managing Director, Head of Sustainability and Sustainable Finance",SGX,Singapore,Singapore,https://www.linkedin.com/in/herrycho/,"Singapore, Singapore",1.352083,103.819836,Male,Male,Male
79,Chong,Susan Chong,Founder and Chief Executive Officer,Greenpac,Singapore,Singapore,https://www.linkedin.com/in/susan-chong-b9515623/?originalSubdomain=sg,"Singapore, Singapore",1.352083,103.819836,Male,Male,Male
80,Chopra,Jyoti Chopra,Chief Diversity and Sustainability Officer,MGM Resorts International,"New York, NY",USA,https://www.linkedin.com/in/jyoti-chopra-inclusion/,"New York, NY, USA",40.712775,-74.005973,Male,Male,Male
81,Clarke,Isha Clarke,Founding Member,Youth vs. Apocalypse,"Oakland, CA",USA,https://www.instagram.com/curlyqisha/?hl=en,"Oakland, CA, USA",37.804351,-122.271164,Male,Male,Male
82,Clarkson,Helen Clarkson,Chief Executive Officer,The Climate Group,London,United Kingdom,https://www.linkedin.com/in/helenclarkson/,"London, United Kingdom",51.507218,-0.127586,Male,Male,Male
83,Cohen,Ellie Cohen,Chief Executive Officer,The Climate Center,"San Francisco, CA",USA,https://www.linkedin.com/in/elliecohen/,"San Francisco, CA, USA",37.77493,-122.419416,Male,Male,Male
84,Colicchio,Lisa Colicchio,Director of Sustainability,Metrolink,"Los Angeles, CA",USA,https://www.linkedin.com/in/lisacolicchio/,"Los Angeles, CA, USA",34.052234,-118.243685,Male,Male,Male
85,Coneim,Myriam Coneim,Director of Sustainability,American Express,"New York, NY",USA,https://www.linkedin.com/in/myriamconeim/?locale=en_US,"New York, NY, USA",40.712775,-74.005973,Male,Male,Male
86,Connelly,James Connelly,Chief Executive Officer,My Green Lab,"Seattle, WA",USA,https://www.linkedin.com/in/james-connelly-55909024/,"Seattle, WA, USA",47.60621,-122.332071,Male,Male,Male
87,Conseil,Dominique Nils Conseil,Founder and Former Chief Executive Officer,Sustainable Results,"Minneapolis, MN",USA,https://www.linkedin.com/in/dominique-nils-conseil/,"Minneapolis, MN, USA",44.977753,-93.265011,Male,Male,Male
88,Cook,Pia Heidenmark Cook,Chief Sustainability Officer,IKEA,Stockholm,Sweden,https://www.linkedin.com/in/pia-heidenmark-cook-bb088042/,"Stockholm, Sweden",59.329324,18.068581,Male,Male,Male
89,Cooke,Erin Cooke,Sustainability Director,San Francisco International Airport,"San Francisco, CA",USA,https://www.linkedin.com/in/erinmcooke/,"San Francisco, CA, USA",37.77493,-122.419416,Male,Male,Male
90,Copeny,Mari Copeny,"Little Miss Flint, Founder",Wednesdays For Water,"Flint, MI",USA,https://twitter.com/LittleMissFlint?ref_src=twsrc%5Egoogle%7Ctwcamp%5Eserp%7Ctwgr%5Eauthor,"Flint, MI, USA",43.012527,-83.687456,Male,Male,Male
91,Coss,Terry Coss,Retired - Corporate Environmental Director,Xcel Energy,"Minneapolis, MN",USA,https://www.linkedin.com/in/terry-coss-5981b649/,"Minneapolis, MN, USA",44.977753,-93.265011,Male,Male,Male
92,Costlow,John Costlow,President,Sustainable Energy Fund,"Schnecksville, PA",USA,https://www.linkedin.com/in/johncostlow/,"Schnecksville, PA, USA",40.674911,-75.617899,Male,Male,Male
93,Criscuolo,Alexandra Criscuolo,Environmental Sustainability Manager,New York Road Runners,"New York, NY",USA,https://www.linkedin.com/in/alexandracriscuolo/,"New York, NY, USA",40.712775,-74.005973,Male,Male,Male
94,Crowther,Thomas Crowther,Assistant Professor of Global Ecosystem Ecology,ETH Zurich,Zurich,Switzerland,https://www.linkedin.com/in/crowther-thomas-ecology/,"Zurich, Switzerland",47.376887,8.541694,Male,Male,Male
95,Curamil,Alberto  Curamil,Leader and Spokesperson,Alianza Territorial Mapuche,Aracaunia,Chile,https://www.goldmanprize.org/recipient/alberto-curamil/,"Aracaunia, Chile",-38.948921,-72.331113,Male,Male,Male
96,D'Herde,Dorothee D'Herde,Former Director of Sustainability and Social Impact,McKinsey & Company,London,United Kingdom,https://www.linkedin.com/in/dorotheedherde/,"London, United Kingdom",51.507218,-0.127586,Male,Male,Male
97,Daily,Gretchen  Daily,Senior Fellow,"Woods Institute for the Environment, Stanford University","Palo Alto, CA",USA,https://woods.stanford.edu/people/gretchen-c-daily,"Palo Alto, CA, USA",37.441883,-122.14302,Male,Male,Male
98,Daley,Jad Daley,President and Chief Executive Officer,American Forests,"Washington, DC",USA,https://www.linkedin.com/in/jad-daley-08882010/,"Washington, DC, USA",38.907192,-77.036871,Male,Male,Male
99,Damen,Maureen Damen,Founder ,Rise Up Senegal,Dakar,Senegal,https://twitter.com/risesenegal?lang=en,"Dakar, Senegal",14.716677,-17.467686,Male,Male,Male
100,Dandridge,Cyane Dandridge,Executive Director,Strategic Energy Innovations (SEI),"San Rafael, CA",USA,https://www.linkedin.com/in/cyane-dandridge-6a86a0/,"San Rafael, CA, USA",37.973535,-122.531087,Male,Male,Male
101,Daniell,Lisa Daniell,Director of Climate Change,New Zealand Ministry for the Environment,Auckland,New Zealand,https://www.linkedin.com/in/lisa-daniell-5b353421/,"Auckland, New Zealand",-36.850883,174.764488,Male,Male,Male
102,Dasgupta,Aniruddha Dasgupta,President and Chief Executive Officer,World Resources Institute (WRI),"Washington, DC",USA,https://www.linkedin.com/in/aniruddha-dasgupta/,"Washington, DC, USA",38.907192,-77.036871,Male,Male,Male
103,Davenport,Juliet Davenport,Founder and Chief Executive Officer,Good Energy,Swindon,United Kingdom,https://www.linkedin.com/in/juliet-davenport-643564/,"Swindon, United Kingdom",51.555774,-1.779718,Male,Male,Male
104,Davis,Tony Davis,Chief Executive Officer and Chief Information Officer,Inherent Group,"New York, NY",USA,https://www.linkedin.com/in/tony-davis-42491819b,"New York, NY, USA",40.712775,-74.005973,Male,Male,Male
105,Davis,Bill Davis,Founder & Managing Director,Stance Capital ,"Winchester, MA",USA,https://www.linkedin.com/in/bill-davis-90a7b91/,"Winchester, MA, USA",42.452303,-71.136996,Male,Male,Male
106,de Groot,Han de Groot,Executive Director; Former Chief Executive Officer,WASTE NL; Rainforest Alliance,South Holland,Netherlands,https://www.linkedin.com/in/handegroot1/,"South Holland, Netherlands",52.020798,4.493784,Male,Male,Male
107,de los Angeles Carvajal,Maria de los Angeles Carvajal,Founder,"SuMar, Choices for Nature",Guaymas,Mexico,https://www.sustainabilityleadersnetwork.org/fellows/maria-carvajal/,"Guaymas, Mexico",27.917865,-110.908938,Male,Male,Male
108,de Schaepmeester,Jonas de Schaepmeester,Program Manager Decarbonization,Umicore,Ghent,Belgium,https://www.linkedin.com/in/jonas-de-schaepmeester-he-him-9b531377/?originalSubdomain=be,"Ghent, Belgium",51.054342,3.717424,Male,Male,Male
109,Dee,Jon Dee,Founder and Managing Director,DoSomething,Sydney,Australia,https://www.linkedin.com/in/jondee/,"Sydney, Australia",-33.86882,151.209296,Male,Male,Male
110,del Hierro Calvachi,Ana Gabriela del Hierro Calvachi,Researcher,Instituto Nacional de Biodiversidad (INABIO),Quito ,Ecuador,https://www.linkedin.com/in/adelhierrocalvachi/?originalSubdomain=ec,"Quito , Ecuador",-0.180653,-78.467838,Male,Male,Male
111,DeSimone,Joseph DeSimone,Exec. Chairman and Co-founder,Carbon3d,"San Francisco, CA",USA,https://www.linkedin.com/in/josephdesimone1/,"San Francisco, CA, USA",37.77493,-122.419416,Male,Male,Male
112,Dhanuka,Ankur Dhanuka,Deep Decarbonization Research Fellow with the Environment and Natural Resources Program,Harvard University,"Cambridge, MA",USA,https://www.linkedin.com/in/ankur-dhanuka-744bbb28/,"Cambridge, MA, USA",42.373616,-71.109734,Male,Male,Male
113,Diaz,Illac Diaz,Founder,Liter of Light,Manila,Philippines,https://www.linkedin.com/in/ildiaz/?originalSubdomain=ph,"Manila, Philippines",14.599512,120.98422,Male,Male,Male
114,Díaz Mirabal,Gregorio Díaz Mirabal,General Coordinator,Indigenous Organizations of the Amazon Basin (COICA),Caracas,Venezuela,https://www.facebook.com/josegregorio.diazmirabal,"Caracas, Venezuela",10.480594,-66.903606,Male,Male,Male
115,DiBianca,Suzanne DiBianca,EVP Corporate Relations and Chief Impact Officer,Salesforce,"San Francisco, CA",USA,https://www.linkedin.com/in/suzannedibianca/,"San Francisco, CA, USA",37.77493,-122.419416,Male,Male,Male
116,Dillen,Abigail Dillen,President,Earthjustice,"San Francisco, CA",USA,https://www.linkedin.com/in/abbie-dillen/ ,"San Francisco, CA, USA",37.77493,-122.419416,Male,Male,Male
117,DiNola,Ralph DiNola,Chief Executive Officer,New Buildings Institute,"Portland, OR",USA,https://www.linkedin.com/in/ralph-dinola-2092ab1/ ,"Portland, OR, USA",45.515232,-122.678385,Male,Male,Male
118,Dixson-Declѐve,Sandrine Dixson-Declѐve,Senior Advisor,Interel,Brussels,Belgium,https://www.linkedin.com/in/sandrine-dixson-decl%C3%A8ve-9074aa2/?originalSubdomain=be,"Brussels, Belgium",50.85034,4.35171,Male,Male,Male
119,Dorsey,Cheryl Dorsey,President,Echoing Green,"Washington, DC",USA,https://www.linkedin.com/in/cheryl-dorsey/,"Washington, DC, USA",38.907192,-77.036871,Male,Male,Male
120,Dorsey,M.K. Dorsey,Limited Partner,Ibersun,"Washington, DC",USA,https://www.linkedin.com/in/profmkd/,"Washington, DC, USA",38.907192,-77.036871,Male,Male,Male
121,Duan,Bin Duan,Director,Beijing Carbon-Change Environment Research Center,Beijing,China,https://www.linkedin.com/in/bin-duan-036115a2/,"Beijing, China",39.9042,116.407396,Male,Male,Male
122,Duarte,Mafalda Duarte,Chief Executive Officer,Climate Investment Funds,"Washington, DC",USA,https://www.linkedin.com/in/mafaldaduarte1/ ,"Washington, DC, USA",38.907192,-77.036871,Male,Male,Male
123,Dumain,Jill Dumain,Global Vice President of Sustainability Solutions; Former Chief Executive Officer,SGS; BlueSign Technologies,"Santa Barbara, CA",USA,https://www.linkedin.com/in/jilldumain/?originalSubdomain=ch,"Santa Barbara, CA, USA",34.42083,-119.69819,Male,Male,Male
124,Edahiro,Junko Edahiro,President,"Institute for Studies in Happiness, Economy and Society (ISHES)",Tokyo,Japan,https://www.linkedin.com/in/junko-edahiro-98a57b162/?originalSubdomain=jp,"Tokyo, Japan",35.676192,139.650311,Male,Male,Male
125,Edozien,Ndidi Nnoli Edozien,Chair,Circular Economy Innovation Partnership (CEIP),Lagos,Nigeria,https://www.linkedin.com/in/dr-ndidi-nnoli-edozien-798649141/?originalSubdomain=ng,"Lagos, Nigeria",6.524379,3.379206,Male,Male,Male
126,Ehnes,Jack Ehnes,Chief Executive Officer,CalSTRS ,"West Sacramento, CA",USA,https://www.linkedin.com/in/jack-ehnes/,"West Sacramento, CA, USA",38.580461,-121.530234,Male,Male,Male
127,Ehrlich,Paul Ehrlich,"President, Center for Conservation Biology, Bing Professor of Population Studies",Stanford University,"Palo Alto, CA",USA,https://ccb.stanford.edu/paul-r-ehrlich,"Palo Alto, CA, USA",37.441883,-122.14302,Male,Male,Male
128,El Aynaoui,Karim El Aynaoui,President,Policy Center for the New South,Rabat,Morocco,https://www.linkedin.com/company/policycenterns/about/,"Rabat, Morocco",33.97159,-6.849813,Male,Male,Male
129,El Battouty,Sarah El Battouty,Chairman Founder,ECOnsult architecture,Cairo,Egypt,https://www.linkedin.com/in/sarah-el-battouty-2b823081/?originalSubdomain=eg,"Cairo, Egypt",30.04442,31.235712,Male,Male,Male
130,Elliott,John Elliott,Chief Sustainability Officer,Lawrence Berkeley National Laboratory,"Berkeley, CA",USA,https://www.linkedin.com/in/john-elliott-7317a662/,"Berkeley, CA, USA",37.871523,-122.273042,Male,Male,Male
131,Ellsmoor,James Ellsmoor,Founder and Chief Executive Officer; Director,Island Innovation; Solar Head of State,Lisbon,Portugal,https://www.linkedin.com/in/jellsmoor/,"Lisbon, Portugal",38.722252,-9.139337,Male,Male,Male
132,Emerson,Jed Emerson,"Managing Director, Global Lead Impact Investing",Tiedemann Advisors,"New York, NY",USA,https://www.linkedin.com/in/jedemerson/,"New York, NY, USA",40.712775,-74.005973,Male,Male,Male
133,Espinosa,Patricia Espinosa,Executive Secretary,United Nations Framework Convention on Climate Change (UNFCCC),Bonn,Germany,https://twitter.com/PEspinosaC?ref_src=twsrc%5Egoogle%7Ctwcamp%5Eserp%7Ctwgr%5Eauthor,"Bonn, Germany",50.73743,7.098207,Male,Male,Male
134,Euston-Brown,Megan Euston-Brown,Director at Sustainable Energy Africa,Director at Sustainable Energy Africa,Cape Town,South Africa,https://www.sustainable.org.za/people.php,"Cape Town, South Africa",-33.924868,18.424055,Male,Male,Male
135,Fay Zahniser,Meghan Fay Zahniser,Executive Director,AASHE,"Philadelphia, PA",USA,linkedin.com/in/meghan-fay-zahniser-5616087,"Philadelphia, PA, USA",39.952584,-75.165222,Male,Male,Male
136,Fernández Bremauntz,Adrian Fernández Bremauntz,Chief Executive Officer,Iniciativa Climática de México,Mexico City,Mexico,https://www.linkedin.com/in/adrian-fern%C3%A1ndez-284a4930/?originalSubdomain=mx,"Mexico City, Mexico",19.432608,-99.133208,Male,Male,Male
137,"Fernández Luiselli
",Edda Fernández Luiselli,Director General,Primary Sector and Renewable Natural Resources in the Undersecretary for Environmental Regulation and Promotion of the Ministry of Environment and Natural Resources (SEMARNAT),Mexico City,Mexico,https://twitter.com/eddafdz?lang=en,"Mexico City, Mexico",19.432608,-99.133208,Male,Male,Male
138,Ferreyra Acosta,Vicente Ferreyra Acosta,Chief Executive Officer ,Sustentur,Quintana Roo,Mexico,https://www.linkedin.com/in/vicenteferreyra/,"Quintana Roo, Mexico",19.181739,-88.479138,Male,Male,Male
139,Figueres,Christiana Figueres,Founding Partner,Global Optimism,San Jose,Costa Rica,https://www.linkedin.com/in/christianafigueres/ ,"San Jose, Costa Rica",9.928069,-84.090725,Male,Male,Male
140,Findlay,Martha Hall Findlay,Chief Sustainability Officer,Suncor,Calgary,Canada,https://www.linkedin.com/in/marthahallfindlay/?originalSubdomain=ca,"Calgary, Canada",51.044733,-114.071883,Male,Male,Male
141,Flynn,Cassie Flynn,Strategic Advisor on Climate Change,United Nations Development Programme (UNDP),"New York, NY",USA,https://www.linkedin.com/in/cassieflynn/ ,"New York, NY, USA",40.712775,-74.005973,Male,Male,Male
142,Foley,Jonathan Foley,Executive Director,Project Drawdown,"San Francisco, CA",USA,https://www.linkedin.com/in/jonathan-foley-182808b9/,"San Francisco, CA, USA",37.77493,-122.419416,Male,Male,Male
143,Forrest,Andrew Forrest,Founder,GH2,Perth,Australia,https://www.linkedin.com/in/andrew-forrest-57672b1a/?originalSubdomain=au,"Perth, Australia",-31.952312,115.861309,Male,Male,Male
144,Fouad,Yasmine Fouad,Minister of Environment,Arabic Republic of Egypt,Cairo,Egypt,https://www.eeaa.gov.eg/en-us/aboutus/aboutministry/minister.aspx,"Cairo, Egypt",30.04442,31.235712,Male,Male,Male
145,Fraser,Mike Fraser,VP of Global Sustainability Services,Schneider Electric,"Louisville, KY",USA,https://www.linkedin.com/in/mnfraser/,"Louisville, KY, USA",38.252665,-85.758456,Male,Male,Male
146,Freijo,Juan Jose Freijo,"Vice President, Global Head of Sustainability and EMEA Government Affairs",Brambles,Madrid,Spain,https://www.linkedin.com/in/j-j-freijo-42935410/,"Madrid, Spain",40.416775,-3.70379,Male,Male,Male
147,Fresco,Louise Fresco,President of the Executive Board,Wageningen University & Research,Wageningen,Netherlands,https://twitter.com/louiseofresco?lang=en,"Wageningen, Netherlands",51.981224,5.658416,Male,Male,Male
148,Friedmann,Julio Friedmann,"Senior Research Scholar, Lead of CaMRI Initiative",Columbia University,"New York, NY",USA,https://www.linkedin.com/in/julio-friedmann-86a83a44/,"New York, NY, USA",40.712775,-74.005973,Male,Male,Male
149,Friend,Gil Friend,Chief Executive Officer,Natural Logic,"Berkeley, CA",USA,https://www.linkedin.com/in/gfriend/,"Berkeley, CA, USA",37.871523,-122.273042,Male,Male,Male
150,Furtado,Marcelo Furtado,Chief Sustainability Officer,ZScore,São Paulo,Brazil,https://www.linkedin.com/in/marcelo-furtado-49912861/en/?originalSubdomain=br,"São Paulo, Brazil",-23.555771,-46.639557,Male,Male,Male
151,Garcetti,Eric Garcetti,"Mayor of LA, Chairperson",C40 Cities,"Los Angeles, CA",USA,https://www.linkedin.com/in/ericgarcetti/ ,"Los Angeles, CA, USA",34.052234,-118.243685,Male,Male,Male
152,Gates,Bill Gates,Co-chair,Bill and Melinda Gates Foundation,"Seattle, WA",USA,https://www.linkedin.com/in/williamhgates/,"Seattle, WA, USA",47.60621,-122.332071,Male,Male,Male
153,Gauri,Pratik Gauri,Partner and India President,5th Element Group PBC,Delhi,India,https://www.linkedin.com/in/pratikgauri/,"Delhi, India",28.704059,77.10249,Male,Male,Male
154,Gelobter,Michel Gelobter,Managing Director,Reflective Earth,"Berkeley, CA",USA,https://www.linkedin.com/in/gelobter/,"Berkeley, CA, USA",37.871523,-122.273042,Male,Male,Male
155,Gerrard,Michael Gerrard,Professor,Columbia University Law School,"New York, NY",USA,https://www.linkedin.com/in/michael-gerrard-534262131/,"New York, NY, USA",40.712775,-74.005973,Male,Male,Male
156,Ghoneim,Rana Ghoneim,Chief of Energy Systems and Infrastructure Division,UNIDO,Vienna,Austria,https://www.linkedin.com/in/rana-ghoneim-1a5b4840/ ,"Vienna, Austria",48.208174,16.373819,Male,Male,Male
157,Giradet,Herbert Giradet,Author; Co-Founder,World Future Council,Newport,United Kingdom,https://www.linkedin.com/in/herbert-girardet-a2853811/?originalSubdomain=uk,"Newport, United Kingdom",51.584151,-2.997664,Male,Male,Male
158,Goldmann,Mattias Goldmann,Chief Sustainability Officer,Sweco,Stockholm,Sweden,https://www.linkedin.com/in/mattiasgoldmann/,"Stockholm, Sweden",59.329324,18.068581,Male,Male,Male
159,Gonzalez,Luis Gonzalez,Director of Advocacy,Unidad Ecológica Salvadoreña,San Salvador,El Salvador,https://twitter.com/unes_elsalvador?lang=en,"San Salvador, El Salvador",13.69294,-89.218191,Male,Male,Male
160,Gopal,Ajei Gopal,Chief Executive Officer,Ansys,"Pittsburgh, PA",USA,https://www.linkedin.com/in/ajeigopal/,"Pittsburgh, PA, USA",40.440625,-79.995886,Male,Male,Male
161,Göpel,Maja Göpel,Director of Research,The New Institute,Berlin,Germany,https://twitter.com/beyond_ideology?lang=en,"Berlin, Germany",52.520007,13.404954,Male,Male,Male
162,Gordon,Kate Gordon,Director,California Governor's Office of Planning and Research,"Berkeley, CA",USA,https://www.linkedin.com/in/kategordonconsulting/,"Berkeley, CA, USA",37.871523,-122.273042,Male,Male,Male
163,Gore,Al Gore,Chairman,Generation Investment Management,"Nashville, TN",USA,https://www.algore.com/,"Nashville, TN, USA",36.162664,-86.781602,Male,Male,Male
164,Goudreau,James Goudreau,Head of Climate,Novartis,"Boston, MA",USA,https://www.linkedin.com/in/jamesgoudreau/,"Boston, MA, USA",42.360082,-71.05888,Male,Male,Male
165,Graber,Mauricio Graber,Chief Executive Officer,Chr. Hansen Holdings A/S,Copenhagen,Denmark,https://www.linkedin.com/in/mauricio-graber/,"Copenhagen, Denmark",55.676097,12.568337,Male,Male,Male
166,Graham,Sonja Graham,CO-Chief Executive Officer,Global Action Plan,London,United Kingdom,https://www.linkedin.com/in/sonjagraham/,"London, United Kingdom",51.507218,-0.127586,Male,Male,Male
167,Graves,Phil Graves,Chief Sustainability Officer: President,Bass Pro Shops; Johnny Morris Foundation,"Springfield, MS",USA,https://www.linkedin.com/in/phil-graves-1b993515/,"Springfield, MS, USA",37.208957,-93.292299,Male,Male,Male
168,Gravitz,Alisa Gravitz,Chief Executive Officer,Green America,"Washington, DC",USA,https://greenamerica.org/people/alisa-gravitz,"Washington, DC, USA",38.907192,-77.036871,Male,Male,Male
169,Grenier,Catherine Grenier,President and Chief Executive Officer,Nature Conservancy Canada,Quebec,Canada,https://www.linkedin.com/in/catherine-grenier-448278108/ ,"Quebec, Canada",46.813878,-71.207981,Male,Male,Male
170,Groser,Tim Groser,Former Minister of Climate Change Issues ; Global Advisory Council,Government of New Zealand; TREELION Foundation,Wellington,New Zealand,https://www.linkedin.com/in/tim-groser-a35b9831/,"Wellington, New Zealand",-41.292381,174.778746,Male,Male,Male
171,Grossman,Marianna Grossman,Founder and Managing Partner,Minerva Ventures,"Portland, OR",USA,https://www.linkedin.com/in/mariannagrossman/,"Portland, OR, USA",45.515232,-122.678385,Male,Male,Male
172,Guajajara,Sônia Bone  Guajajara,Coordinator,Articulação dos Povos Indígenas do Brasil (APIB),São Luís,Brazil,https://www.facebook.com/GuajajaraSonia/,"São Luís, Brazil",-2.530672,-44.298895,Male,Male,Male
173,Gudynas,Eduardo Gudynas,Director,Latin American Centre for Social Ecology,Montivideo,Uruguay,https://greattransition.org/contributor/eduardo-gudynas,"Montivideo, Uruguay",-34.901113,-56.164531,Male,Male,Male
174,Guerra,Alexsandra Guerra,Co-Founder and Director of Corporate Development,Nori,"Seattle, WA",USA,https://www.linkedin.com/in/alexsandraguerra/,"Seattle, WA, USA",47.60621,-122.332071,Male,Male,Male
175,Gupta,Ranjit  Gupta,Chief Executive Officer Azure power ,Azure power ,Delhi,India,https://www.linkedin.com/in/ranjit-gupta-98b351/,"Delhi, India",28.704059,77.10249,Male,Male,Male
176,Gutiérrez,Juliana Gutiérrez,"Director, Co-Founder",Low Carbon City,Medellin,Colombia,https://www.linkedin.com/in/julianagutierrezr/?originalSubdomain=co https://fellows.echoinggreen.org/fellow/juliana-gutierrez/,"Medellin, Colombia",6.247638,-75.565815,Male,Male,Male
177,Haass,Alexis Olans Haass,Chief Sustainability Officer,Arcadis,Munich,Germany,https://www.linkedin.com/in/alexisolanshaass/?originalSubdomain=de,"Munich, Germany",48.135125,11.58198,Male,Male,Male
178,Halonen,Tarja Halonen,Former President of Finland (2000-2012),Republic of Finland,Helsinki,Finland,https://twitter.com/TarjaHalonen?ref_src=twsrc%5Egoogle%7Ctwcamp%5Eserp%7Ctwgr%5Eauthor,"Helsinki, Finland",60.169856,24.938379,Male,Male,Male
179,Halvorsen,Kristin Halvorsen,Director,Center for International Climate Research,Oslo,Norway,https://twitter.com/kristin_klima?lang=en,"Oslo, Norway",59.913869,10.752245,Male,Male,Male
180,Hammond,Brendan Hammond,Project Director at Asian Renewable Energy Hub,Asian Renewable Energy Hub,Perth,Australia,https://www.linkedin.com/in/brendanhammond1/?originalSubdomain=au,"Perth, Australia",-31.952312,115.861309,Male,Male,Male
181,Hampton,Kate Hampton,Chief Executive Officer,Children's Investment Fund Foundation (CIFF),London,United Kingdom,https://www.linkedin.com/in/kate-hampton-932b3035/,"London, United Kingdom",51.507218,-0.127586,Male,Male,Male
182,Hansen,James Hansen,"Adjunct Professor and Director of Climate Science, Awareness, and Solutions",Columbia University Earth Institute,"Palisades, NY",USA,https://www.earth.columbia.edu/users/profile/james-e-hansen,"Palisades, NY, USA",41.011308,-73.913293,Male,Male,Male
183,Hart,Selwin Hart,Special Advisor and Assistant-Secretary General,Climate Action at United Nations,"Washington, DC",USA,https://www.linkedin.com/in/selwin-hart-852080136/ ,"Washington, DC, USA",38.907192,-77.036871,Male,Male,Male
184,Hausfather,Zeke Hausfather,Director of Climate and Energy,The Breakthrough Institute,"San Francisco, CA",USA,https://www.linkedin.com/in/zeke-hausfather-7327699/ ,"San Francisco, CA, USA",37.77493,-122.419416,Male,Male,Male
185,Hauter,Wenonah Hauter,Founder and Executive Director,Food and Water Watch,"Washington, DC",USA,https://www.foodandwaterwatch.org/staff/board-of-directors/,"Washington, DC, USA",38.907192,-77.036871,Male,Male,Male
186,Hawken,Paul Hawken,Founder,"Project Drawdown, Project Regeneration","Sausalito, CA",USA,http://www.paulhawken.com/,"Sausalito, CA, USA",37.859094,-122.485251,Male,Male,Male
187,Hayhoe,Katharine Hayhoe,Professor of Endowed Political Science and Director of Climate Center,Texas Tech University,"Lubbock, TX",USA,https://www.linkedin.com/in/katharine-hayhoe/,"Lubbock, TX, USA",33.577863,-101.855166,Male,Male,Male
188,Hedegaard,Connie Hedegaard,Chair; Former EU Commissioner for Cliamte Action (2010-2014),Organisation for Economic Co-Operation and Development (OECD) Round Table on Sustainability Development,Copenhagen,Denmark,https://conniehedegaard.com/,"Copenhagen, Denmark",55.676097,12.568337,Male,Male,Male
189,Heiny,Kate Heiny,Sustainability Director,Zalando SE,Brussels,Belgium,https://www.linkedin.com/in/kateheiny/,"Brussels, Belgium",50.85034,4.35171,Male,Male,Male
190,Helias,Virginie Helias,Chief Sustainability Officer,Proctor and Gamble,Geneva,Switzerland,https://www.linkedin.com/in/virginiehelias/,"Geneva, Switzerland",46.204391,6.143158,Male,Male,Male
191,Henriksen,Heather Henriksen,Chief Sustainability Officer,Harvard University,"Boston, MA",USA,https://www.linkedin.com/in/heatherhenriksen/,"Boston, MA, USA",42.360082,-71.05888,Male,Male,Male
192,Henry,Don Henry,Enterprise Professor of Environmentalism at the Melbourne Sustainable Society Institute,University of Melbourne,Melbourne,Australia,https://msd.unimelb.edu.au/about/our-people/academic/don-henry,"Melbourne, Australia",-37.813628,144.963058,Male,Male,Male
193,Hidayati,Nur Hidayati,Executive Director,Indonesian Forum for the Environment (Walhi),Jakarta,Indonesia,https://www.linkedin.com/in/nur-hidayati-3048304a/,"Jakarta, Indonesia",-6.208763,106.845599,Male,Male,Male
194,Hirsi,Isra Hirsi,Cofounder and Co-Executive Director,US Youth Climate Strike,"Minneapolis, MN",USA,https://twitter.com/israhirsi?lang=en,"Minneapolis, MN, USA",44.977753,-93.265011,Male,Male,Male
195,Hobley,Anthony Hobley,"Executive Director, Former Chief Executive Officer","Mission Possible Platform of World Economic Platform, Carbon Tracker Initiative",London,United Kingdom,https://www.linkedin.com/in/anthony-hobley/,"London, United Kingdom",51.507218,-0.127586,Male,Male,Male
196,Hochschild,David Hochschild,Chair,California Energy Commission,"San Francisco, CA",USA,https://www.linkedin.com/in/david-hochschild-1520106/,"San Francisco, CA, USA",37.77493,-122.419416,Male,Male,Male
197,Holmgren,Jennifer Holmgren,Chief Executive Officer,LanzaTech,"Skokie, IL",USA,https://www.linkedin.com/in/jennifer-holmgren-95b6201/,"Skokie, IL, USA",42.032402,-87.741625,Male,Male,Male
198,Horton,Robert Horton,VP of Environmental Affairs and Sustainability,Dallas Fort Worth International Airport,"Irving, TX",USA,https://www.linkedin.com/in/robert-horton/,"Irving, TX, USA",32.814018,-96.948894,Male,Male,Male
199,Horton,Daniele Horton,Founder and President,Verdani Partners,"San Diego, CA",USA,https://www.linkedin.com/in/danielehorton/,"San Diego, CA, USA",32.715738,-117.161084,Male,Male,Male
200,Hsieh,Elaine Hsieh,Co-Founder,Third Derivative,"Oakland, CA",USA,https://www.linkedin.com/in/elaineishere/ ,"Oakland, CA, USA",37.804351,-122.271164,Male,Male,Male
201,Hu,Kehua Hu,Director of Sustainability Stewardship,China National Textile and Apparel Council,Beijing,China,https://www.linkedin.com/in/kehua-hu-6936a43a/?originalSubdomain=cn,"Beijing, China",39.9042,116.407396,Male,Male,Male
202,Huac,Vanessa Huac,Journalist; Co-Founder,Sachamama,"Miami, FL",USA,https://twitter.com/vanessahauc?lang=en,"Miami, FL, USA",25.76168,-80.19179,Male,Male,Male
203,Hui,Yuming Hui,China Director,The Climate Group,Beijing,China,https://www.linkedin.com/in/yuming-hui-8066349/?originalSubdomain=cn,"Beijing, China",39.9042,116.407396,Male,Male,Male
204,Hultman,Nathan Hultman,Founding Director of Center for Global Sustainability,University of Maryland,"Washington, DC",USA,https://www.linkedin.com/in/nathan-hultman-223647/ ,"Washington, DC, USA",38.907192,-77.036871,Male,Male,Male
205,Hunter,Amy Hunter,Global Head of Sustainability,BlackRock,"San Francisco, CA",USA,https://www.linkedin.com/in/amy-hunter-1307448/,"San Francisco, CA, USA",37.77493,-122.419416,Male,Male,Male
206,Hurst,Nate Hurst,President of Wells Fargo Foundation; Chief Social Impact and Sustainability Officer,Wells Fargo,"Washington, DC",USA,https://www.linkedin.com/in/natehurst/,"Washington, DC, USA",38.907192,-77.036871,Male,Male,Male
207,Hynes,Evan Hynes,Co-Founder,Climatebase,"Berkeley, CA",USA,https://www.linkedin.com/in/evanhynes/,"Berkeley, CA, USA",37.871523,-122.273042,Male,Male,Male
208,Ibrahim,Hindou Oumarou Ibrahim,President,Association for Indigenous Women and Peoples of Chad (AFPAT),N'Djamena,Chad,https://www.linkedin.com/in/hindou-oumarou-ibrahim-2ba22410/?originalSubdomain=td,"N'Djamena, Chad",12.134846,15.055742,Male,Male,Male
209,Inamdar,Amar Inamdar,Managing Director,KawiSafi Ventures,Nairobi,Kenya,https://www.linkedin.com/in/amarinamdar/,"Nairobi, Kenya",-1.292066,36.821946,Male,Male,Male
210,Ishii,Naoko Ishii,Former Chief Executive Officer,Global Environment Facility,Tokyo,Japan,https://twitter.com/naokoishiitokyo?lang=en,"Tokyo, Japan",35.676192,139.650311,Male,Male,Male
211,Jackson,Lisa Jackson,"Vice President of Environment, Policy and Social Initiatives",Apple,"Cupertino, CA",USA,https://www.apple.com/leadership/lisa-jackson/,"Cupertino, CA, USA",37.322998,-122.032182,Male,Male,Male
212,Jackson,Tim Jackson,Director,Centre for the Understanding of Sustainable Prosperity (CUSP),Guildford,United Kingdom,https://www.linkedin.com/in/tim-jackson-0b86311b/?originalSubdomain=uk,"Guildford, United Kingdom",51.23622,-0.570409,Male,Male,Male
213,James,Christopher James,Founder & Executive Chairman,Engine No. 1,"San Francisco, CA",USA,https://www.linkedin.com/company/engine-no-1/people/,"San Francisco, CA, USA",37.77493,-122.419416,Male,Male,Male
214,Jeng,Fatou Jeng,Founder,Clean Earth Gambia,Banjul,The Gambia,https://www.linkedin.com/in/fatou-jeng-605b8410b/detail/contact-info/,"Banjul, The Gambia",13.454375,-16.575319,Male,Male,Male
215,Jenks,Brett Jenks,President and Chief Executive Officer,Rare,"Washington, DC",USA,https://www.linkedin.com/in/brett-jenks-9200196/ ,"Washington, DC, USA",38.907192,-77.036871,Male,Male,Male
216,Johnson,Oliver Johnson,"Head of Climate, Energy and Environment","Government Office for Science, UK",London,United Kingdom,https://www.linkedin.com/in/oliverwjohnson/ ,"London, United Kingdom",51.507218,-0.127586,Male,Male,Male
217,Johnson,David Johnson,Principal ,SERA Architects,"Oakland, CA",USA,https://www.linkedin.com/in/david-johnson-3a51495,"Oakland, CA, USA",37.804351,-122.271164,Male,Male,Male
218,Johnson,Marilyn Johnson,Senior Director of Global Sustainability,Clarivate,"Seattle, WA",USA,https://www.linkedin.com/in/marilynajohnson/,"Seattle, WA, USA",47.60621,-122.332071,Male,Male,Male
219,Jones,Dave Jones,"Director, Climate Risk Initiative","Center for Law Energy & the Environment, UC Berkeley","Berkeley, CA",USA,https://www.law.berkeley.edu/research/clee/about/people/dave-jones-2/,"Berkeley, CA, USA",37.871523,-122.273042,Male,Male,Male
220,Jones,Hannah Jones,Former Chief Sustainability Officer,Nike,"Portland, OR",USA,https://www.linkedin.com/in/joneshannah/,"Portland, OR, USA",45.515232,-122.678385,Male,Male,Male
221,Joppa,Lucas Joppa,Chief Environmental Officer,Microsoft,"Redmond, WA",USA,https://www.linkedin.com/in/lucas-joppa/,"Redmond, WA, USA",47.673988,-122.121512,Male,Male,Male
222,Kalvig,Siri M.  Kalvig,Chief Executive Officer,Nysnø Climate Investments,Stavanger,Norway,https://www.linkedin.com/in/siri-m-kalvig-a17596b/,"Stavanger, Norway",58.969976,5.733107,Male,Male,Male
223,Kamkwamba,William Kamkwamba,Co-founder,Moving Windmills Project,Wimbe ,Malawi,https://twitter.com/wkamkwamba?lang=en,"Wimbe , Malawi",-13.483068,34.153195,Male,Male,Male
224,Kammen,Daniel Kammen,Professor of Energy,UC Berkeley; Renewable and Appropriate Energy Lab,"Berkeley, CA",USA,https://www.linkedin.com/in/daniel-kammen-4217346/ ,"Berkeley, CA, USA",37.871523,-122.273042,Male,Male,Male
225,Kampschroer,Kevin Kampschroer,Director; Chief Sustainability Officer,US General Services Administration,"Washington, DC",USA,https://www.linkedin.com/in/kevinkampschroer/ ,"Washington, DC, USA",38.907192,-77.036871,Male,Male,Male
226,Karsner,Andy Karsner,Partner,Emerson Collective,"Palo Alto, CA",USA,https://www.linkedin.com/in/andy-karsner-3191952/,"Palo Alto, CA, USA",37.441883,-122.14302,Male,Male,Male
227,Kauk,Stacy Kauk,Director of Sustainability Fund,Shopify,Ontario,Canada,https://www.linkedin.com/in/stacy-kauk-p-eng/,"Ontario, Canada",51.253775,-85.323214,Male,Male,Male
228,Keijzer,Marie-Noëlle Keijzer,Co-Founder and Chief Executive Officer,WeForest,Antwerp,Belgium,https://www.linkedin.com/in/marie-no%C3%ABlle-keijzer-68089a2/,"Antwerp, Belgium",51.219448,4.402464,Male,Male,Male
229,Kenderdine,Melanie Kenderdine,President,Energy Futures Initiative,"Washington, DC",USA,https://www.linkedin.com/in/melanie-kenderdine-b13bb7bb/,"Washington, DC, USA",38.907192,-77.036871,Male,Male,Male
230,Kennedy,Danny Kennedy,Chief Energy Officer,New Energy Nexus,"Oakland, CA",USA,https://www.linkedin.com/in/kennedydanny/ ,"Oakland, CA, USA",37.804351,-122.271164,Male,Male,Male
231,Keronen,Jouni Keronen,Executive Director,Climate Leadership Council,Porvoo,Finland,https://www.linkedin.com/in/jouni-keronen-98385514a/,"Porvoo, Finland",60.393192,25.665274,Male,Male,Male
232,Kerry,John Kerry,Special Presidential Envoy for Climate,US Department of State,"Boston, MA",USA,https://www.state.gov/biographies/john-kerry/,"Boston, MA, USA",42.360082,-71.05888,Male,Male,Male
233,Khan,Tessa Khan,Director,Uplift,London,United Kingdom,https://www.linkedin.com/in/tessa-khan-a42b6a48/?originalSubdomain=uk,"London, United Kingdom",51.507218,-0.127586,Male,Male,Male
234,Khanh,Ngụy Thị Khanh,Executive,Green Innovation and Development Centre,Hanoi,Vietnam,https://www.linkedin.com/in/nguy-khanh-12b806131/,"Hanoi, Vietnam",21.027764,105.83416,Male,Male,Male
235,Ki-Moon,Ban Ki-Moon,Former Secretary-General of the United Nations (8th),United Nations,Seoul,South Korea,https://www.linkedin.com/in/bankimoon/,"Seoul, South Korea",37.566535,126.977969,Male,Male,Male
236,Kidney,Sean Kidney,Chief Executive Officer,Climate Bonds Initiative,London,United Kingdom,https://www.linkedin.com/in/seankidney/,"London, United Kingdom",51.507218,-0.127586,Male,Male,Male
237,Kimmell,Kenneth Kimmell,Visiting Scholar/Former President,Northeastern University School of Public Policy and Urban Affairs/Union of Concerned Scientists,"Boston, MA",USA,https://www.linkedin.com/in/ken-kimmell-b2046a12/,"Boston, MA, USA",42.360082,-71.05888,Male,Male,Male
238,Kimmerer,Robin Kimmerer,Distinguished Teaching Professor and Director of the Center for Native Peoples and the Environment,SUNY ESF,"Fabius, NY",USA,https://www.linkedin.com/in/robin-kimmerer-10397a11/,"Fabius, NY, USA",42.835067,-75.986032,Male,Male,Male
239,Kind,Sebastian Kind,Chairman of the Board,GREENMAP,Brussels,Belgium,https://www.linkedin.com/in/sebastiankind/?originalSubdomain=ar,"Brussels, Belgium",50.85034,4.35171,Male,Male,Male
240,Kliem,John Kliem,Director of Federal Energy Strategy; Former Executive Director of Resilient Energy Program Office,Johnson Controls; US Navy,"Washington, DC",USA,https://www.linkedin.com/in/johnkliem/,"Washington, DC, USA",38.907192,-77.036871,Male,Male,Male
241,Kloberdanz,Kristina Kloberdanz,Chief Sustainability Officer,Mastercard,"New York, NY",USA,https://www.linkedin.com/in/kristina-kloberdanz-1446491/,"New York, NY, USA",40.712775,-74.005973,Male,Male,Male
242,Kocher,Isabella Kocher,Former Chief Executive Officer,Engie,Paris,France,https://www.linkedin.com/in/isabellekocher/,"Paris, France",48.856614,2.352222,Male,Male,Male
243,Komiyama,Hiroshi Komiyama,Chairman,Platinum Society Network,Tokyo,Japan,https://www.linkedin.com/pulse/capitalism-coming-age-story-daisuke-tsuchiya/,"Tokyo, Japan",35.676192,139.650311,Male,Male,Male
244,Kortenhorst,Jules Kortenhorst,Chief Executive Officer,Rocky Mountain Institute (RMI),"Boulder, CO",USA,https://www.linkedin.com/in/juleskortenhorst/ ,"Boulder, CO, USA",40.014986,-105.270546,Male,Male,Male
245,Kositratna,Nisakorn Kositratna,Vice Chairman,Thailand Environment Institute,Nonthaburi,Thailand,http://www.tei.or.th/th/executive.php,"Nonthaburi, Thailand",13.859108,100.521651,Male,Male,Male
246,Kroll,Christian Kroll,Founder,Ecosia,Berlin,Germany,https://www.linkedin.com/in/christian-kroll-b2aa06b/,"Berlin, Germany",52.520007,13.404954,Male,Male,Male
247,Krupp,Fred Krupp,President,Environmental Defense Fund,"New York, NY",USA,"https://www.edf.org/people/fred-krupp
https://www.linkedin.com/in/fred-krupp-66310510a/","New York, NY, USA",40.712775,-74.005973,Male,Male,Male
248,Krut,Riva Krut,Former Vice President and Chief Sustainability Officer (retired); Board member and Chair of Sustainability & Innovation Committee,Linde; The Metals Company,"New York, NY",USA,https://www.linkedin.com/in/riva-krut-37377722/,"New York, NY, USA",40.712775,-74.005973,Male,Male,Male
249,Kuenkel,Petra Kuenkel,Executive Director,Collective Leadership Institute,Berlin,Germany,https://www.linkedin.com/in/petra-kuenkel/,"Berlin, Germany",52.520007,13.404954,Male,Male,Male
250,Kumar ,Emani Kumar,Chairman,Green growth Asia foundation,South Delhi,India,https://www.linkedin.com/in/emani-kumar-93972616/?originalSubdomain=in,"South Delhi, India",28.481655,77.187286,Male,Male,Male
251,Kyte,Rachel Kyte,Dean; Former Chief Executive Officer,The Fletcher School at Tufts University; Sustainable Energy for All,"Medford, MA",USA,https://www.linkedin.com/in/rachelkyte/,"Medford, MA, USA",42.41843,-71.106164,Male,Male,Male
252,La Camera,Francesco La Camera,Director-General,International Renewable Energy Agency (IRENA),Abu Dhabi,UAE,https://twitter.com/flacamera,"Abu Dhabi, UAE",24.453884,54.377344,Male,Male,Male
253,Laasme-McQuilkin,Haly Laasme-McQuilkin,US Northeast Regional Representative Board of Directors; Governance Board of Directors,National Energy Assistance Director’s Association (NEADA); National Energy and Utility Affordability Coalition (NEUAC),"Dover, DE",USA,https://www.linkedin.com/in/h%C3%A4ly-laasme-4415454/,"Dover, DE, USA",39.158168,-75.524368,Male,Male,Male
254,Lackner,Klaus Lackner,Director of the Center for Negative Carbon Emissions,Arizona State University,"Tempe, AZ",USA,https://www.linkedin.com/in/klaus-lackner/,"Tempe, AZ, USA",33.42551,-111.940005,Male,Male,Male
255,Lacy,Rodolfo Lacy,Environmental Directorate,OECD,Paris,France,https://www.linkedin.com/in/rodolfo-lacy-306b8bb2/,"Paris, France",48.856614,2.352222,Male,Male,Male
256,Lalich,Jeff Lalich,EHS for Global Service Center Operations,Rivian,"San Francisco, CA",USA,https://www.linkedin.com/in/jefflalich/,"San Francisco, CA, USA",37.77493,-122.419416,Male,Male,Male
257,Landell-Mills,Natasha Landell-Mills,Head of Stewardship,Sarasin & Partners,London,United Kingdom,https://www.linkedin.com/in/natasha-landell-mills-cfa-05115935/,"London, United Kingdom",51.507218,-0.127586,Male,Male,Male
258,Langworth,Anders Langworth,Founder,Bankers for Climate,Stockholm,Sweden,https://www.linkedin.com/in/anders-langworth-725422a/,"Stockholm, Sweden",59.329324,18.068581,Male,Male,Male
259,Lanshina,Tatiana Lanshina,Former Chairperson,ReGeneration 2030,Moscow,Russia,https://www.linkedin.com/in/tatiana-lanshina-44bb2b61/?originalSubdomain=ru,"Moscow, Russia",55.755826,37.6173,Male,Male,Male
260,Lao,Janice Lao,ESG Director,Helen of Troy,"El Paso, TX",USA,https://www.linkedin.com/in/janiceillao/,"El Paso, TX, USA",31.761878,-106.485022,Male,Male,Male
261,Lee,Audrey Lee,Co-Chair,Clean Energy for Biden,"San Francisco, CA",USA,https://www.linkedin.com/in/jaudreylee/ ,"San Francisco, CA, USA",37.77493,-122.419416,Male,Male,Male
262,Lee,Hoesung Lee,Chair of IPCC,Intergovernmental Panel on Climate Change,Seoul,South Korea,https://www.linkedin.com/in/hoesung-lee-68792892/?originalSubdomain=kr,"Seoul, South Korea",37.566535,126.977969,Male,Male,Male
263,Leibowitz,Sandra Leibowitz,Founder and Owner,Sustainable Design Consulting,"Alexandria, VA",USA,https://www.linkedin.com/in/sandra-leibowitz-6504b55/,"Alexandria, VA, USA",38.804836,-77.046921,Male,Male,Male
264,Leonard,Annie Leonard,Executive Director,Greenpeace USA,"Berkeley, CA",USA,https://www.linkedin.com/in/annie-leonard-65a00333/,"Berkeley, CA, USA",37.871523,-122.273042,Male,Male,Male
265,Lever,Andrew Lever,Director of Policy and Innovation,Carbon Trust,Edinburgh,United Kingdom,https://www.linkedin.com/in/andrew-lever-1a551a/,"Edinburgh, United Kingdom",55.953252,-3.188267,Male,Male,Male
266,Lim,Theresa Mundita Lim,Executive Director,ASEAN Center for Biodiversity,Los Banos,Philippines,https://www.linkedin.com/in/theresa-mundita-lim-7322b321/?originalSubdomain=ph,"Los Banos, Philippines",14.169912,121.244063,Male,Male,Male
267,Lindsay,Donald Lindsay,Chief Executive Officer,Teck Resources,Vancouver,Canada,https://www.linkedin.com/in/don-lindsay-01136926/?originalSubdomain=ca,"Vancouver, Canada",49.282729,-123.120738,Male,Male,Male
268,Lippert,Dawn Lippert,Chief Executive Officer,Elemental Excelerator,"Honolulu, Hawaii",USA,https://www.linkedin.com/in/dawnlippert/,"Honolulu, Hawaii, USA",21.306944,-157.858333,Male,Male,Male
269,Liswani,Hilda Liswani,Founder and Chief Executive Officer,WeBloom,Zurich,Switzerland,https://www.linkedin.com/in/hilda-n-liswani-7952218a/,"Zurich, Switzerland",47.376887,8.541694,Male,Male,Male
270,Logan-Riley,India Logan-Riley,Climate Activist,,Auckland,New Zealand,https://twitter.com/indimiro?lang=en,"Auckland, New Zealand",-36.850883,174.764488,Male,Male,Male
271,Lores,Enrique Lores,Chief Executive Officer,HP Inc.,"Los Altos, CA",USA,https://www.linkedin.com/in/enriquelores/,"Los Altos, CA, USA",37.385218,-122.11413,Male,Male,Male
272,Lovins,Amory Lovins,Co-Founder and Chairman Emeritus,Rocky Mountain Institute (RMI),"Basalt, CO",USA,https://rmi.org/people/amory-lovins/,"Basalt, CO, USA",39.372481,-107.078501,Male,Male,Male
273,Lovins,Hunter Lovins,President,Natural Capitalism Solutions,"Denver, CO",USA,https://www.linkedin.com/in/hunterlovins/ ,"Denver, CO, USA",39.739236,-104.990251,Male,Male,Male
274,Lubber,Mindy Lubber,President and Chief Executive Officer,Ceres,"Boston, MA",USA,https://www.linkedin.com/in/mindy-lubber-b113962/ ,"Boston, MA, USA",42.360082,-71.05888,Male,Male,Male
275,Lubchenco,Jane Lubchenco,Professor,Environmental (Marine) Sciences at Oregon State University,"Corvallis, OR",USA,https://www.linkedin.com/in/jane-lubchenco-7794a2207/,"Corvallis, OR, USA",44.564566,-123.262044,Male,Male,Male
276,Mack,Clair Mack,Chief Executive,Scottish Renewables,Glasgow,United Kingdom,https://www.linkedin.com/in/claire-mack-50a93814/,"Glasgow, United Kingdom",55.864237,-4.251806,Male,Male,Male
277,Mackie,Erica Mackie,Co-Founder and Chief Executive Officer,GRID Alternatives,"Oakland, CA",USA,https://www.linkedin.com/in/erica-mackie-9487539/ ,"Oakland, CA, USA",37.804351,-122.271164,Male,Male,Male
278,Maclay,Bill Maclay,Founder and Principal,Maclay Architects,"Waitsfield, VT",USA,https://www.linkedin.com/in/bill-maclay-a89b352/,"Waitsfield, VT, USA",44.192639,-72.779848,Male,Male,Male
279,MacNaughton,Joan MacNaughton,Executive Chair of the World Energy Trilemma,World Energy Council,London,United Kingdom,https://www.linkedin.com/in/joanmacnaughton/,"London, United Kingdom",51.507218,-0.127586,Male,Male,Male
280,Makichyan,Arshak Makichyan,Climate Activist,,Moscow,Russia,https://twitter.com/MakichyanA?ref_src=twsrc%5Egoogle%7Ctwcamp%5Eserp%7Ctwgr%5Eauthor,"Moscow, Russia",55.755826,37.6173,Male,Male,Male
281,Marcario,Rose Marcario,Former Chief Executive Officer,Patagonia,"Los Angeles, CA",USA,https://www.linkedin.com/in/rose-marcario-06703716/,"Los Angeles, CA, USA",34.052234,-118.243685,Male,Male,Male
282,Marquez,Francia Marquez,2018 Goldman Prize Recipient,Goldman Environmental Prize,Cali,Colombia,https://twitter.com/franciamarquezm?lang=en,"Cali, Colombia",3.451647,-76.531985,Male,Male,Male
283,Martinez Lozada,Esteban Martinez Lozada,Sustainability Director,Green Loop,Bogotá,Colombia,https://www.linkedin.com/in/emartinezl/?locale=es_ES,"Bogotá, Colombia",4.710989,-74.072092,Male,Male,Male
284,Marvel,Kate Marvel,Associate Research Scientist,NASA Goddard Institute for Space Studies (NASA GISS),"New York, NY",USA,https://twitter.com/drkatemarvel?lang=en,"New York, NY, USA",40.712775,-74.005973,Male,Male,Male
285,Matee,Nzambi Matee,Founder,Gjenge Makers,Nairobi,Kenya,https://www.linkedin.com/in/nzambi-matee-gjenge2017/?originalSubdomain=ke,"Nairobi, Kenya",-1.292066,36.821946,Male,Male,Male
286,Mathai,Wanjira Mathai,Vice President and Regional Director,World Resources Institute (WRI),Nairobi,Kenya,https://twitter.com/mathaiwanjira?lang=en,"Nairobi, Kenya",-1.292066,36.821946,Male,Male,Male
287,Mathur,Ajay Mathur,Director General,International Solar Alliance,New Delhi,India,https://www.linkedin.com/in/international-solar-alliance/,"New Delhi, India",28.613939,77.209021,Male,Male,Male
288,Mazria,Ed Mazria,Chief Executive Officer,Architecture 2030,"Sante Fe, NM",USA,https://www.linkedin.com/in/edward-mazria-5b0117129/ ,"Sante Fe, NM, USA",35.686975,-105.937799,Male,Male,Male
289,Mazzacurati,Emilie Mazzacurati,Global Head of Climate Solutions,Moody's Corporation,"Berkeley, CA",USA,https://www.linkedin.com/in/emazzacurati/,"Berkeley, CA, USA",37.871523,-122.273042,Male,Male,Male
290,McCarthy,Gina McCarthy,National Climate Advisor; Former President,White House Office of Domestic Climate Policy; NRDC,"Boston, MA",USA,https://www.nrdc.org/experts/gina-mccarthy,"Boston, MA, USA",42.360082,-71.05888,Male,Male,Male
291,McDonald,Jane McDonald,Executive Vice President,International Institute for Sustainable Development,Winnipeg,Canada,https://www.linkedin.com/in/jane-mcdonald-75695a66/ ,"Winnipeg, Canada",49.895136,-97.138374,Male,Male,Male
292,McDonough,William McDonough,"Architect, Designer and Author","McDonough Innovation, William McDonough + Partners","Charlottesville, VA",USA,https://www.linkedin.com/in/william-mcdonough/,"Charlottesville, VA, USA",38.029306,-78.476678,Male,Male,Male
293,McIntyre,Don McIntyre,Managing Director and Chief Executive Officer,Impact Metrics,"Washington, DC",USA,https://www.linkedin.com/in/donmcintyre/,"Washington, DC, USA",38.907192,-77.036871,Male,Male,Male
294,McKibben,Bill McKibben,Author; Co-Founder,350.org,"Middlebury, VT",USA,https://www.linkedin.com/in/bill-mckibben-6174131b7/,"Middlebury, VT, USA",44.015337,-73.16734,Male,Male,Male
295,McLaughlin,Kathleen McLaughlin,Chief Sustainability Officer,Walmart,"Bentonville, AR",USA,https://www.linkedin.com/in/kathleenforgood/,"Bentonville, AR, USA",36.372854,-94.208817,Male,Male,Male
296,Mcunu,Ndoni Mcunu,Bilateral Engagement Lead,SouthSouthNorth,Johannesburg,South Africa,https://www.linkedin.com/in/ndoni-mcunu-015bb68b/?originalSubdomain=za,"Johannesburg, South Africa",-26.204103,28.047305,Male,Male,Male
297,Meezan,Erin Meezan,VP and Chief Sustainability Officer,Interface,"Atlanta, GA",USA,https://www.linkedin.com/in/erinmeezan/,"Atlanta, GA, USA",33.748995,-84.387982,Male,Male,Male
298,Mena,Marcelo Mena,"Former Environment Minister, Director","Climate Action Center at Pontificia Universidad Católica de Valparaíso, Chile Office of the Global Center on Adaptation",Santiago,Chile,https://www.linkedin.com/in/marcelo-mena-87a02914/?originalSubdomain=cl,"Santiago, Chile",-33.44889,-70.669266,Male,Male,Male
299,Mendiluce,María Mendiluce,Chief Executive Officer,We Mean Business Coalition,Geneva,Switzerland,https://www.linkedin.com/in/mariamendiluce/,"Geneva, Switzerland",46.204391,6.143158,Male,Male,Male
300,Merkel,Angela Merkel,Chancellor,Federal Republic of Germany,Berlin,Germany,https://www.bundeskanzlerin.de/bkin-en/angela-merkel/biography,"Berlin, Germany",52.520007,13.404954,Male,Male,Male
301,Merkl,Andreas Merkl,Former President,Ocean Conservancy,"Washington, DC",USA,https://www.linkedin.com/in/andreas-merkl-75449377/ ,"Washington, DC, USA",38.907192,-77.036871,Male,Male,Male
302,Meza Murillo,Andrea Meza Murillo,Minister of Environment and Energy ,Government of Costa Rica,San Jose,Costa Rica,https://www.linkedin.com/in/andrea-meza-a9730875/?originalSubdomain=cr,"San Jose, Costa Rica",9.928069,-84.090725,Male,Male,Male
303,Miller,Christopher Miller,Activism Manager; Former Director of Sustainability,Ben and Jerry's; Seventh Generation,"Burlington, VA",USA,https://www.linkedin.com/in/christopher-miller-6bb5b215/,"Burlington, VA, USA",44.475882,-73.212072,Male,Male,Male
304,Miner,Kimberly Miner,Earth and Climate Scientist,NASA,"Los Angeles, CA",USA,https://www.linkedin.com/in/drkimberleyminer/,"Los Angeles, CA, USA",34.052234,-118.243685,Male,Male,Male
305,Moghadam,Hamid Moghadam,Chairman & Chief Executive Officer,Prologis,"San Francisco, CA",USA,https://www.linkedin.com/in/hamid-moghadam-936026178/,"San Francisco, CA, USA",37.77493,-122.419416,Male,Male,Male
306,Moniz,Ernest Moniz,Former Secretary of Energy,US Department of Energy,"Washington, DC",USA,https://www.linkedin.com/in/ernestmoniz/ ,"Washington, DC, USA",38.907192,-77.036871,Male,Male,Male
307,Morlet,Andrew Morlet,Chief Executive Officer,Ellen MacArthur Foundation,London,United Kingdom,https://www.linkedin.com/in/amorlet/,"London, United Kingdom",51.507218,-0.127586,Male,Male,Male
308,Morningstar,Richard Morningstar,"Founding Chairman, Board Director","Global Energy Center, Atlantic Council","Washington, DC",USA,https://www.albrightstonebridge.com/team/richard-morningstar,"Washington, DC, USA",38.907192,-77.036871,Male,Male,Male
309,Morris,Jennifer Morris,Chief Executive Officer; Former President,The Nature Conservancy; Conservation International,"Washington, DC",USA,https://www.linkedin.com/in/jennifer-morris-934a426/ ,"Washington, DC, USA",38.907192,-77.036871,Male,Male,Male
310,Moses,Rebekah Moses,Director of Impact Strategy,Impossible Foods,"San Francisco, CA",USA,https://www.linkedin.com/in/rebekahmoses/,"San Francisco, CA, USA",37.77493,-122.419416,Male,Male,Male
311,Mountbatten-Windsor,"HRH The Duke of Cambridge, William Mountbatten-Windsor",Founder,Earthshot Prize,London,United Kingdom,https://twitter.com/KensingtonRoyal?ref_src=twsrc%5Egoogle%7Ctwcamp%5Eserp%7Ctwgr%5Eauthor,"London, United Kingdom",51.507218,-0.127586,Male,Male,Male
312,Muhoza,Rosette Muhoza,Co-founder,My Green Home,Kigali,Rwanda,http://mygreenhome.rw/,"Kigali, Rwanda",-1.957876,30.112735,Male,Male,Male
313,Mumba,Musonda Mumba,Director,United Nations Environment Programme (UNEP),Nairobi,Kenya,https://www.linkedin.com/in/dr-musonda-mumba-aa09611/ ,"Nairobi, Kenya",-1.292066,36.821946,Male,Male,Male
314,Mumgaard,Bob Mumgaard,Chief Executive Officer,Commonwealth Fusion Systems,"Boston, MA",USA,https://www.linkedin.com/in/mumgaard/,"Boston, MA, USA",42.360082,-71.05888,Male,Male,Male
315,Muñoz,Gonzalo Muñoz,High Level Climate Action Champion,COP25,Santiago,Chile,https://www.linkedin.com/in/gonzalomunozabogabir/ ,"Santiago, Chile",-33.44889,-70.669266,Male,Male,Male
316,Muqeet,Abdul Muqeet,Activist (The Paper Bag Boy),,Abu Dhabi,UAE,https://www.instagram.com/thepaperbagboy/,"Abu Dhabi, UAE",24.453884,54.377344,Male,Male,Male
317,Mutiso,Rose Mutiso,Research Director ,Enegy for Growth,Nairobi,Kenya,https://www.linkedin.com/in/rosemutiso/?originalSubdomain=ke,"Nairobi, Kenya",-1.292066,36.821946,Male,Male,Male
318,Nakate,Vanessa Nakate,Founder,Rise Up Movement,Kampala,Uganda,https://www.linkedin.com/in/vanessa-nakate-09156889/,"Kampala, Uganda",0.347596,32.58252,Male,Male,Male
319,Narain,Sunita Narain,Director General,Center for Science and Environment,Delhi,India,https://www.cseindia.org/page/sunita-narain,"Delhi, India",28.704059,77.10249,Male,Male,Male
320,Nash,Brian Nash,Director of Sustainability,Ingredion Incorporated,"Indianapolis, IN",USA,https://www.linkedin.com/in/brian-nash-05a57842/,"Indianapolis, IN, USA",39.768403,-86.158068,Male,Male,Male
321,Nath,Shloka Nath,Head of Sustainability and Special Projects,Tata Trusts,Mumbai,India,https://www.linkedin.com/in/shlokanath/,"Mumbai, India",19.075984,72.877656,Male,Male,Male
322,Ndhlukula,Kudakwashe (Kuda) Ndhlukula,Executive Director,SADC Centre for Renewable Energy & Energy Efficiency (SACREEE),Harare,Zimbabwe,https://www.linkedin.com/in/kudakwashe-kuda-ndhlukula-72420317/?miniProfileUrn=urn%3Ali%3Afs_miniProfile%3AACoAAANpYEwBu-pEk5gVbZM9OOgYA2lhW00TG5M,"Harare, Zimbabwe",-17.821629,31.049226,Male,Male,Male
323,Neff,Sarah Neff,Senior Vice President of Sustainability,Kilroy Realty Corporation,"Los Angeles, CA",USA,https://www.linkedin.com/in/sara-neff-4490b214/,"Los Angeles, CA, USA",34.052234,-118.243685,Male,Male,Male
324,Nelsen,Chad Nelsen,Chief Executive Officer,Surfrider Foundation,"Orange County, CA",USA,https://www.linkedin.com/in/chadnelsen/#:~:targetText=Chad%20Nelsen%20%2D%20Chief%20Executive%20Officer%20%2D%20Surfrider%20Foundation%20%7C%20LinkedIn ,"Orange County, CA, USA",33.717471,-117.831143,Male,Male,Male
325,Neubauer,Luisa Neubauer,Climate Activist,,Berlin,Germany,https://twitter.com/luisamneubauer?lang=en,"Berlin, Germany",52.520007,13.404954,Male,Male,Male
326,Nick,Alexander Nick,Head of Sustainability Strategy and Management,BMW,Munich,Germany,https://www.linkedin.com/in/alnick/,"Munich, Germany",48.135125,11.58198,Male,Male,Male
327,Nilsson,Måns  Nilsson,Executive Director,SEI,Stockholm,Sweden,https://www.linkedin.com/in/m%C3%A5ns-nilsson-b330925/?originalSubdomain=se,"Stockholm, Sweden",59.329324,18.068581,Male,Male,Male
328,Nindi,Stephen  Nindi,Director General,National Land Use Planning Commission,Dar Es Salaam,Tanzania,https://www.linkedin.com/in/stephen-nindi-41125724/?originalSubdomain=tz,"Dar Es Salaam, Tanzania",-6.792354,39.208328,Male,Male,Male
329,Njiru,Wawira Njiru,Founder and Executive Director,Food for Education,Nairobi,Kenya,https://twitter.com/wawiranjiru?lang=en,"Nairobi, Kenya",-1.292066,36.821946,Male,Male,Male
330,Nnoli-Edozien,Ndidi Nnoli-Edozien,Chair,Circular Economy Innovation Partnership,Abuja,Nigeria,https://www.linkedin.com/in/dr-ndidi-nnoli-edozien-798649141/,"Abuja, Nigeria",9.076478,7.398574,Male,Male,Male
331,Nobre,Antonio Nobre,Researcher,National Institute of Amazonian Research,São José dos Campos,Brazil,https://twitter.com/buscandoverdade?lang=en,"São José dos Campos, Brazil",-23.21984,-45.891566,Male,Male,Male
332,Nooyi,Indra Nooyi,Former Chairman and Chief Executive Officer,PepsiCo,"New York, NY",USA,https://www.linkedin.com/in/indranooyi/,"New York, NY, USA",40.712775,-74.005973,Male,Male,Male
333,O'Brien,Sean O'Brien,President and Chief Executive Officer,Nature Serve,"Arlington, VA",USA,https://www.linkedin.com/in/seanatnatureserve/,"Arlington, VA, USA",38.87997,-77.10677,Male,Male,Male
334,O'Connor,Robert O'Connor,Partner,Wilson Sonsini Goodrich & Rosati,"Corte Madera, CA",USA,https://www.linkedin.com/in/robert-o-connor-bba68934/,"Corte Madera, CA, USA",37.925481,-122.527476,Male,Male,Male
335,O'Mara,Collin O'Mara,President and Chief Executive Officer,National Wildlife Federation,"Reston, VA",USA,https://www.linkedin.com/in/collin-o-mara-536ba76/,"Reston, VA, USA",38.958631,-77.357003,Male,Male,Male
336,O'Neill,Claire O'Neill,"Managing Director of Climate and Energy, Former President","World Business Council, COP series",London,United Kingdom,https://www.linkedin.com/in/clairefordevizes/,"London, United Kingdom",51.507218,-0.127586,Male,Male,Male
337,Ogunbiyi,Damilola Ogunbiyi,Chief Executive Officer and Special Representative; Co-Chair,UN SRSG for Sustainable Energy for All; UN-Energy,Vienna,Austria,https://www.linkedin.com/in/damilola-ogunbiyi/,"Vienna, Austria",48.208174,16.373819,Male,Male,Male
338,Ojiambo,Sanda Ojiambo,Executive Director,United Nations Global Compact,Nairobi,Kenya,https://www.linkedin.com/in/sandaojiambo/ ,"Nairobi, Kenya",-1.292066,36.821946,Male,Male,Male
339,Okonjo-Iweala,Ngozi Okonjo-Iweala,Director-General,World Trade Organization (WTO),Ogwashi Ukwu,Nigeria,https://twitter.com/NOIweala?ref_src=twsrc%5Egoogle%7Ctwcamp%5Eserp%7Ctwgr%5Eauthor,"Ogwashi Ukwu, Nigeria",6.181614,6.53031,Male,Male,Male
340,Okonkwo,Salma  Okonkwo,Chairwoman,UBI Group,Accra,Ghana,https://www.linkedin.com/in/salma-okonkwo-a5171b1aa/,"Accra, Ghana",5.603717,-0.186964,Male,Male,Male
341,Okoroafor,Michael Okoroafor,VP of Global Sustainability and Packaging Innovation,McCormick & Company,"Hunt Valley, MD",USA,https://www.linkedin.com/in/michael-okoroafor-ph-d-5a07b9a9/,"Hunt Valley, MD, USA",39.490001,-76.658507,Male,Male,Male
342,Ortega,Cindy Ortega,Founder and Chief Executive Officer,Blue Heron Strategies,"Las Vegas, NV",USA,https://www.linkedin.com/in/cindy-ortega-38642898/,"Las Vegas, NV, USA",36.169941,-115.13983,Male,Male,Male
343,Otto,Michael Otto,Chairman of the Supervisory Board,The Otto Group,Hamburg,Germany,https://www.clubofrome.org/member/otto-michael/,"Hamburg, Germany",53.551085,9.993682,Male,Male,Male
344,Ould-Dada,Zitouni Ould-Dada,"Deputy Director of Climate Change, Biodiversity, and Environment",Food and Agriculture Organization of the United States,Paris,France,https://www.linkedin.com/in/zitouni-ould-dada-71170543/,"Paris, France",48.856614,2.352222,Male,Male,Male
345,Oxender,Monique Oxender,Chief Sustainability Officer,Keurig Dr. Pepper,"Burlington, MA",USA,https://www.linkedin.com/in/moniqueoxender/,"Burlington, MA, USA",42.504716,-71.19562,Male,Male,Male
346,Ozturkeri,Goksenin Ozturkeri,Vice President,CohnReznick Capital,"San Francisco, CA",USA,https://www.linkedin.com/in/gozturkeri/,"San Francisco, CA, USA",37.77493,-122.419416,Male,Male,Male
347,Pagitsas,Chrissa Pagitsas,Former VP and Head of ESG,Fannie Mae,"Washington, DC",USA,https://www.linkedin.com/in/chrissa-pagitsas/,"Washington, DC, USA",38.907192,-77.036871,Male,Male,Male
348,Palmieri,Edward Palmieri,Director of Global Sustainability,Facebook,"Washington, DC",USA,https://www.linkedin.com/in/ejpalmieri/,"Washington, DC, USA",38.907192,-77.036871,Male,Male,Male
349,Palt,Alexandra Palt,Executive Vice President and Chief Sustainability Officer,L'Oreal,Paris,France,https://www.linkedin.com/in/alexandra-palt-953133a/,"Paris, France",48.856614,2.352222,Male,Male,Male
350,Pandey,Ridhima Pandey,Climate Activist,,Haridwar,India,https://twitter.com/ridhimapandey7?lang=en,"Haridwar, India",29.945691,78.164248,Male,Male,Male
351,Parikh,Jyoti Parikh,Executive Director,Integrated Research and Action for Development,South Delhi,India,https://www.linkedin.com/in/jyoti-parikh-25b1707/,"South Delhi, India",28.481655,77.187286,Male,Male,Male
352,Pendragon,Carl Pendragon,Founder and Chief Executive Officer,Skymining,Stockholm,Sweden,https://www.linkedin.com/in/carl-pendragon-b4212a68/,"Stockholm, Sweden",59.329324,18.068581,Male,Male,Male
353,Perez,Bea Perez,Senior Vice President and Sustainability Officer,Coca-Cola Company,"Decatur, GA",USA,https://www.linkedin.com/in/bea-perez-8225919/,"Decatur, GA, USA",33.774828,-84.296312,Male,Male,Male
354,"Pérez, Jr.","Vincent Pérez, Jr.",Chairman; Former Secretary,Alternergy and Solar Pacific; Philippine Department of Energy,Manila,Philippines,https://www.linkedin.com/in/vince-s-perez-1287968/?originalSubdomain=ph,"Manila, Philippines",14.599512,120.98422,Male,Male,Male
355,Perkins,Lewis Perkins,President,Apparel Impact Institute,"San Francisco, CA",USA,https://www.linkedin.com/in/lewisbperkins/,"San Francisco, CA, USA",37.77493,-122.419416,Male,Male,Male
356,Perry,Charles Perry,"Special Projects and Aviation, High Level Climate Champion","Sustainable Future for All, COP26",London,United Kingdom,https://www.linkedin.com/in/charles-perry-3742932/,"London, United Kingdom",51.507218,-0.127586,Male,Male,Male
357,Peters,Jonas C. Peters,"Director of Resnick Sustainability Institute, Bren Professor of Chemistry",Caltech,"Pasadena, CA",USA,https://www.cce.caltech.edu/people/jonas-c-peters,"Pasadena, CA, USA",34.147785,-118.144516,Male,Male,Male
358,Pfund,Nancy Pfund,Founder and Managing Partner,DBL Ventures,"San Francisco, CA",USA,https://www.linkedin.com/in/nancy-pfund-30b6ab13/,"San Francisco, CA, USA",37.77493,-122.419416,Male,Male,Male
359,Pica,Erich Pica,President,Friends of the Earth,"Washington, DC",USA,"https://foe.org/about-us/our-team/
https://www.linkedin.com/in/erich-pica-4b84011a/","Washington, DC, USA",38.907192,-77.036871,Male,Male,Male
360,Piccard,Bertrand Piccard,Chairman,Solar Impulse Foundation,Vaud,Switzerland,https://www.linkedin.com/in/bertrandpiccard/,"Vaud, Switzerland",46.561314,6.536765,Male,Male,Male
361,Polman,Paul Polman,"Former Chief Executive Officer, Co-Founder","Unilever, Imagine",London,United Kingdom,https://www.linkedin.com/in/paulpolman/,"London, United Kingdom",51.507218,-0.127586,Male,Male,Male
362,Poulsen,Henrik Poulsen,Chief Executive Officer,Ørsted,Copenhagen,Denmark,https://www.linkedin.com/in/henrik-poulsen-155b22189/,"Copenhagen, Denmark",55.676097,12.568337,Male,Male,Male
363,Prakash,Varshini Prakash,"Co-founder, Executive Director",Sunrise Movement,"Boston, MA",USA,https://twitter.com/VarshPrakash?ref_src=twsrc%5Egoogle%7Ctwcamp%5Eserp%7Ctwgr%5Eauthor,"Boston, MA, USA",42.360082,-71.05888,Male,Male,Male
364,Pulgar-Vidal,Manuel Pulgar-Vidal,Global Leader of Climate & Energy,World Wildlife Fund (WWF),Lima,Peru,https://www.linkedin.com/in/manuel-pulgar-vidal-68447b13/ ,"Lima, Peru",-12.046373,-77.042754,Male,Male,Male
365,Qian,Dany Qian,Global Vice President,Jinko Solar,Shanghai,China,https://www.linkedin.com/in/晶-钱-b77039166/?originalSubdomain=cn,"Shanghai, China",31.230416,121.473701,Male,Male,Male
366,Quaschning,Volker Quaschning,Professor of Renewable Energy Systems,NTW Berlin,Berlin,Germany,https://www.linkedin.com/in/quaschning/?originalSubdomain=de,"Berlin, Germany",52.520007,13.404954,Male,Male,Male
367,Rabinovitch,Kevin Rabinovitch,"Global VP, Sustainability and Chief Climate Officer","Mars, Inc.","Mclean, VA",USA,https://www.linkedin.com/in/kevin-rabinovitch-4280735/,"Mclean, VA, USA",38.933868,-77.17726,Male,Male,Male
368,Ramanujam,Mahesh Ramanujam,President and Chief Executive Officer,US Green Building Council,"Washington, DC",USA,https://www.linkedin.com/in/mahesh-ramanujam-a95a85a/,"Washington, DC, USA",38.907192,-77.036871,Male,Male,Male
369,Rasyid,Yasmin Rasyid,Founder/President,EcoKnights,Kuala Lumpur,Malaysia,https://www.linkedin.com/in/yasminrasyid/,"Kuala Lumpur, Malaysia",3.139003,101.686855,Male,Male,Male
370,Ravenel,Curtis Ravenel,"Finance Advisor, Senior Advisor to Mark Carney",COP26 ,"New York, NY",USA,https://www.linkedin.com/in/curtis-ravenel/,"New York, NY, USA",40.712775,-74.005973,Male,Male,Male
371,Raworth,Kate Raworth,Author; Senior Research Associate; Professor of Practice,Doughnut Economics; Oxford University’s Environmental Change Institute; Amsterdam University of Applied Sciences,Oxford,United Kingdom,https://www.kateraworth.com/about/,"Oxford, United Kingdom",51.752021,-1.257726,Male,Male,Male
372,Razzouk,Assaad Razzouk,Chief Executive Officer at Gurīn Energy,Gurīn Energy,Singapore,Singapore,https://www.linkedin.com/in/assaadrazzouk/,"Singapore, Singapore",1.352083,103.819836,Male,Male,Male
373,Reames,Tony Reames,Assistant Professor of Energy Justice,School for Environment and Sustainability at the University of Michigan,"Ann Arbor, MI",USA,https://www.linkedin.com/in/tonygreames/,"Ann Arbor, MI, USA",42.280826,-83.743038,Male,Male,Male
374,Rijsberman,Frank Rijsberman,Director General,Global Green Growth Institute,Seoul,South Korea,https://www.linkedin.com/in/frank-rijsberman-17841014/,"Seoul, South Korea",37.566535,126.977969,Male,Male,Male
375,Roberts,Carter Roberts,President and Chief Executive Officer,World Wildlife Fund (WWF),"Washington, DC",USA,https://www.linkedin.com/in/carter-roberts-09879331/,"Washington, DC, USA",38.907192,-77.036871,Male,Male,Male
376,Robertson,Gregor Robertson,"Former Mayor of Vancouver, Global Ambassador",Global Covenant of Mayors for Climate and Energy,Vancouver,Canada,https://www.linkedin.com/in/gregor-robertson/?originalSubdomain=ca ,"Vancouver, Canada",49.282729,-123.120738,Male,Male,Male
377,Roche,Vincent Roche,President and Chief Executive Officer,Analog Devices,"Norwood, MA",USA,https://www.analog.com/en/about-adi/corporate-information/executive-team/vincent-roche.html,"Norwood, MA, USA",42.194391,-71.19897,Male,Male,Male
378,Rodriguez,Carlos Manuel Rodriguez,Chief Executive Officer and Chairperson,Global Environment Facility,San Jose,Costa Rica,https://www.linkedin.com/in/carlos-manuel-rodriguez-7442581b6/ ,"San Jose, Costa Rica",9.928069,-84.090725,Male,Male,Male
379,Rodriguez Acha,Majandra Rodriguez Acha,Co-founder,TierrActiva Peru,Lima,Peru,https://twitter.com/majandrraa?lang=en,"Lima, Peru",-12.046373,-77.042754,Male,Male,Male
380,Rozza,Joe Rozza,Director of Sustainability and Resilience,Jacobs,"Atlanta, GA",USA,https://www.linkedin.com/in/joe-rozza-a8143b12/,"Atlanta, GA, USA",33.748995,-84.387982,Male,Male,Male
381,Rucker,Michael Rucker,Chief Executive Officer and Founder,Scout Clean Energy,"Boulder, CO",USA,https://www.linkedin.com/in/michaelwrucker/,"Boulder, CO, USA",40.014986,-105.270546,Male,Male,Male
382,Rukavina,Frank Rukavina,President and Senior Advisor,Sustainable Innovations Operative,"Denver, CO",USA,https://www.linkedin.com/in/frank-rukavina/,"Denver, CO, USA",39.739236,-104.990251,Male,Male,Male
383,Sachs,Jeffrey Sachs,Director,Columbia Center on Sustainable Development,"New York, NY",USA,https://www.linkedin.com/in/jeffrey-sachs-7494689a/,"New York, NY, USA",40.712775,-74.005973,Male,Male,Male
384,Saltvedt,Thina Margreth Saltvedt,"Senior Advisor, Sustainable Finance",Nordea Bank,Oslo,Norway,https://www.linkedin.com/in/thina-margrethe-saltvedt-8163711/,"Oslo, Norway",59.913869,10.752245,Male,Male,Male
385,Samper,Cristian Samper,President and Chief Executive Officer,Wildlife Conservation Society,"New York, NY",USA,https://www.linkedin.com/in/cristian-samper-970898114/,"New York, NY, USA",40.712775,-74.005973,Male,Male,Male
386,Sanchez,Viviana Alvarez Sanchez,Head of Sustainability,North America Unilever ,"New York, NY",USA,https://www.linkedin.com/in/viviana-alvarez-sanchez-6a21b43a/,"New York, NY, USA",40.712775,-74.005973,Male,Male,Male
387,Sanchez,Alvaro Sanchez,Environmental Equity Director,The Greenlining Institute,"San Francisco, CA",USA,https://www.linkedin.com/in/alvarossanchez/,"San Francisco, CA, USA",37.77493,-122.419416,Male,Male,Male
388,Sanjayan,M. Sanjayan,Chief Executive Officer,Conservation International,"Arlington, VA",USA,https://www.linkedin.com/in/m-sanjayan-7a9593b4/ ,"Arlington, VA, USA",38.87997,-77.10677,Male,Male,Male
389,Saunders,Tedd Saunders,Founder and Chief Executive Officer,EcoLogical Solutions,"Boston, MA",USA,https://www.linkedin.com/in/tedd-saunders-a883a51/,"Boston, MA, USA",42.360082,-71.05888,Male,Male,Male
390,Scatasta,Monica Scatasta,"Director, Former Head of Division, Climate, Environment, and Social Policy","Council of Europe Development Bank, European Investment Bank",Luxembourg,Luxembourg,https://www.linkedin.com/in/monica-scatasta-b66089a/,"Luxembourg, Luxembourg",49.815273,6.129583,Male,Male,Male
391,Schauble,Barney Schauble,"Head of Labs, Chairman; Director and Chair",Nephila Climate; Ceres,"Larkspur, CA",USA,https://www.linkedin.com/in/bschauble/,"Larkspur, CA, USA",37.934092,-122.535254,Male,Male,Male
392,Schellnhuber,Hans Joachim Schellnhuber,Founding Director,The Potsdam Institute for Climate Impact Research,Potsdam,Germany,https://twitter.com/PIK_Climate?ref_src=twsrc%5Egoogle%7Ctwcamp%5Eserp%7Ctwgr%5Eauthor,"Potsdam, Germany",52.390569,13.064473,Male,Male,Male
393,Schrag,Daniel Schrag,Director of the Harvard University Center for the Environment.,Harvard University,"Cambridge, MA",USA,https://www.linkedin.com/in/daniel-schrag-6775b58/,"Cambridge, MA, USA",42.373616,-71.109734,Male,Male,Male
394,Schueller,Gayle Schueller,Vice President and Chief Sustainability Officer,3M,"Minneapolis, MN",USA,https://www.linkedin.com/in/gayleschueller/,"Minneapolis, MN, USA",44.977753,-93.265011,Male,Male,Male
395,Schwab,Klaus Schwab,Founder and Executive Chairman,World Economic Forum,Geneva,Switzerland,https://www.linkedin.com/in/klaus-schwab-80b285200/,"Geneva, Switzerland",46.204391,6.143158,Male,Male,Male
396,Schwartz,Daniel Schwartz,Director of Clean Energy Institute,University of Washington,"Seattle, WA",USA,https://www.linkedin.com/in/dt-schwartz/,"Seattle, WA, USA",47.60621,-122.332071,Male,Male,Male
397,Selzer,Larry Selzer,President and Chief Executive Officer,The Conservation Fund,"Arlington, VA",USA,"https://www.conservationfund.org/our-experts/larry-selzer
https://www.linkedin.com/in/larry-selzer-b243239/ ","Arlington, VA, USA",38.87997,-77.10677,Male,Male,Male
398,Shah,Aniket Shah,Senior Advisor for Sustainable Finance,UN Sustainable Development Solutions Network,"New York, NY",USA,https://www.linkedin.com/in/aniket-shah-phd-360a3635/ ,"New York, NY, USA",40.712775,-74.005973,Male,Male,Male
399,Shahnaz,Durreen Shahnaz,Founder and Chief Executive Officer,Impact Investment Exchange,Singapore,Singapore,https://www.linkedin.com/in/durreenshahnaz/,"Singapore, Singapore",1.352083,103.819836,Male,Male,Male
400,Sharpe,Vicky Sharpe,Member Board of Directors; Former President and Chief Executive Officer,EfficiencyOne; Sustainable Development Technology Canada,Nova Scotia,Canada,https://www.linkedin.com/in/vicky-sharpe-3b584051/ ,"Nova Scotia, Canada",44.681987,-63.744311,Male,Male,Male
401,Sharpless,Andrew Sharpless,Chief Executive Officer,Oceana,"Washington, DC",USA,https://www.linkedin.com/in/andrew-sharpless-8844a4b/,"Washington, DC, USA",38.907192,-77.036871,Male,Male,Male
402,Shellenberger,Michael Shellenberger,President; Former President,Environmental Progress; The Breakthrough Institute,"Berkeley, CA",USA,https://www.linkedin.com/in/michael-shellenberger-019631a8/ ,"Berkeley, CA, USA",37.871523,-122.273042,Male,Male,Male
403,Shelton,Suzanne Shelton,President and Chief Executive Officer,Shelton Group,"Knoxville, TN",USA,https://www.linkedin.com/in/suzanneshelton/,"Knoxville, TN, USA",35.960638,-83.920739,Male,Male,Male
404,Shiva,Vandana Shiva,Founding Member,World Future Council,New Delhi,India,https://twitter.com/drvandanashiva?ref_src=twsrc%5Egoogle%7Ctwcamp%5Eserp%7Ctwgr%5Eauthor,"New Delhi, India",28.613939,77.209021,Male,Male,Male
405,Shrivastava,Paul Shrivastava,Chief Sustainability Officer,Sustainability Institute at Penn State,"State College, PA",USA,https://directory.smeal.psu.edu/pxs993,"State College, PA, USA",40.793395,-77.860001,Male,Male,Male
406,Shuckburgh,Emily Shuckburgh,Director,Cambridge Zero at University of Cambridge,Cambridge,United Kingdom,https://www.linkedin.com/in/emily-shuckburgh-01750a4/,"Cambridge, United Kingdom",52.205337,0.121817,Male,Male,Male
407,Silberman,Jennifer Silberman,VP of ESG,YETI,"Washington, DC",USA,https://www.linkedin.com/in/jennifer-silberman-3b40492/,"Washington, DC, USA",38.907192,-77.036871,Male,Male,Male
408,Silva Villanueva,Alicia Silva Villanueva,Founder and Chief Executive Officer,Revitaliza Consultores,Mexico City,Mexico,https://www.linkedin.com/in/aliciasilvasynergy/,"Mexico City, Mexico",19.432608,-99.133208,Male,Male,Male
409,Simpson,Paul Simpson,Chief Executive Officer,CDP,London,United Kingdom,https://www.linkedin.com/in/paulsimpsoncdp/,"London, United Kingdom",51.507218,-0.127586,Male,Male,Male
410,Simpson,Anne Simpson,Managing Investment Director for Board Governance and Sustainability,CalPERS,"Sacramento, CA",USA,https://www.linkedin.com/in/anne-simpson-a3024328/,"Sacramento, CA, USA",38.581572,-121.4944,Male,Male,Male
411,Simson,Kadri Simson,Commissioner for Energy,European Union,Estonia,Estonia,https://twitter.com/KadriSimson?ref_src=twsrc%5Egoogle%7Ctwcamp%5Eserp%7Ctwgr%5Eauthor,"Estonia, Estonia",58.595272,25.013607,Male,Male,Male
412,Singh,Inesh Singh,Chief Sustainability Officer,Sula Vineyards,Haryana,India,https://www.linkedin.com/in/ineshsingh/,"Haryana, India",29.058776,76.085601,Male,Male,Male
413,Sisson,William Sisson,Executive Director,World Business Council for Sustainable Development,"Avon, CT",USA,https://www.linkedin.com/in/wsissonwbcsd/,"Avon, CT, USA",41.80962,-72.830515,Male,Male,Male
414,Sivaram,Varun Sivaram,Senior Director for Clean Energy & Innovation,US Special Presidential Envoy for Climate,"Washington, DC",USA,https://www.linkedin.com/in/varunsivaram/,"Washington, DC, USA",38.907192,-77.036871,Male,Male,Male
415,Skarheim Onsum,Astrid Skarheim Onsum,Chief Executive Officer,Norsk Gjenvinning,Oslo,Norway,https://www.linkedin.com/in/astrid-skarheim-onsum-7a34b01/,"Oslo, Norway",59.913869,10.752245,Male,Male,Male
416,Skea,Jim Skea,Professor of Sustainable Energy,Imperial College London,London,United Kingdom,https://www.imperial.ac.uk/people/j.skea,"London, United Kingdom",51.507218,-0.127586,Male,Male,Male
417,Skinner,Scott Skinner,President and Chief Executive Officer,Clean Foundation,Nova Scotia,Canada,https://www.linkedin.com/in/scott-skinner-8369011/ ,"Nova Scotia, Canada",44.681987,-63.744311,Male,Male,Male
418,Skone,Timothy  Skone,Senior Environmental Engineer,"US Department of Energy, National Energy Technology Labratory","Irwin, PA",USA,https://www.linkedin.com/in/timothy-skone-b3578479/,"Irwin, PA, USA",40.324514,-79.701155,Male,Male,Male
419,Smith,Andrew Smith,"Sr. Manager, Global Energy Management and Sustainability",Cisco,"Boulder, CO",USA,https://www.linkedin.com/in/andrew-smith-94ba585/,"Boulder, CO, USA",40.014986,-105.270546,Male,Male,Male
420,Smith,Alwyn  Smith,Chairman,Southern African Alternative Energy Association (SAAEA),Johannesburg,South Africa,https://www.linkedin.com/in/saaea/,"Johannesburg, South Africa",-26.204103,28.047305,Male,Male,Male
421,Smith,Bren Smith,Co-Executive Director and Co-Founder,GreenWave,"Long Island Sound, CT",USA,https://www.greenwave.org/team ,"Long Island Sound, CT, USA",41.074845,-72.946057,Male,Male,Male
422,Smith,Valerie Smith,Chief Sustainability Officer,CitiBank,"New York, NY",USA,https://www.linkedin.com/in/valerie-smith-98aa326/,"New York, NY, USA",40.712775,-74.005973,Male,Male,Male
423,Smith,Merran Smith,Executive Director,Clean Energy Canada,Victoria,Canada,https://www.linkedin.com/in/merran-smith-64603b63/ ,"Victoria, Canada",48.428421,-123.365644,Male,Male,Male
424,Sokona,Youba Sokona,Coordinator of the African Climate Policy Centre,United Nations Economic Commission for Africa (UNECA),Bamako,Mali,https://www.linkedin.com/in/youba-sokona-01b1b721/,"Bamako, Mali",12.639232,-8.002889,Male,Male,Male
425,Soni,Preeti Soni,"Chief of Climate Change, Resilience, and Energy",United Nations Development Programme (UNDP),Delhi,India,https://www.linkedin.com/in/preeti-soni-917b667/,"Delhi, India",28.704059,77.10249,Male,Male,Male
426,Souris,Dominique Souris,Co-Founder and Executive Director,Youth Climate Lab,Ontario,Canada,https://www.linkedin.com/in/dominiquesouris/ ,"Ontario, Canada",51.253775,-85.323214,Male,Male,Male
427,Spade,Katrina Spade,Founder and Chief Executive Officer,Recompose,"Seattle, WA",USA,https://www.linkedin.com/in/katrina-spade-37047439/,"Seattle, WA, USA",47.60621,-122.332071,Male,Male,Male
428,Sridhar,Kaushik Sridhar,Group Manager of Social Responsibility and ESG Reporting,Evolution Mining,Sydney,Australia,https://www.linkedin.com/in/kaushiksridhar83/,"Sydney, Australia",-33.86882,151.209296,Male,Male,Male
429,Srivastava,Kushagra  Srivastava,Chief Executive Officer,Chakr Innovation,Delhi,India,https://www.linkedin.com/in/kushagra-srivastava-b68b2787/,"Delhi, India",28.704059,77.10249,Male,Male,Male
430,St. Clair,Matt St. Clair,Director of Sustainability,University of California - Office of the President,"Oakland, CA",USA,https://www.linkedin.com/in/matt-st-clair-e-mail-6186b0/,"Oakland, CA, USA",37.804351,-122.271164,Male,Male,Male
431,Stark,Chris Stark,Chief Ececutive,UK's Climate Change Committee (CCC),London,United Kingdom,https://www.linkedin.com/in/chris-stark-06b21a30/?originalSubdomain=uk,"London, United Kingdom",51.507218,-0.127586,Male,Male,Male
432,Steffen,Will Steffen,Councillor,Climate Council of Australia,Canberra,Australia,https://www.linkedin.com/in/will-steffen-92990514/?originalSubdomain=au,"Canberra, Australia",-35.280937,149.130009,Male,Male,Male
433,Stewart,Emma Stewart,Chief Sustainability Officer,Netflix,"San Francisco, CA",USA,https://www.linkedin.com/in/emmastewart/,"San Francisco, CA, USA",37.77493,-122.419416,Male,Male,Male
434,Steyer,Tom Steyer,Founder,NextGen America,"San Francisco, CA",USA,https://www.linkedin.com/in/tomsteyer/,"San Francisco, CA, USA",37.77493,-122.419416,Male,Male,Male
435,Straubel,JB Straubel,Chief Executive Officer,Redwood Materials,"Carson City, NV",USA,https://www.linkedin.com/in/jb-straubel-b694981,"Carson City, NV, USA",39.163798,-119.767403,Male,Male,Male
436,Strunk,Elaine Strunk,Director of Global Sustainability,McDonalds,"Chicago, IL",USA,https://www.linkedin.com/in/elainestrunk/,"Chicago, IL, USA",41.878114,-87.629798,Male,Male,Male
437,Sukhdev,Paven Sukhdev,Founder and Author,Corporation 2020,Nyon,Switzerland,https://www.linkedin.com/in/pavan-sukhdev-2780a614/?originalSubdomain=ch,"Nyon, Switzerland",46.383268,6.234785,Male,Male,Male
438,Sweeney,Sean Sweeney,"Director of the International Program on Labor, Climate & Environment; Coordinator",School of Labor and Urban Studies at City University of New York; Trade Unions for Energy Democracy,"Brooklyn, NY",USA,https://www.linkedin.com/in/sean-sweeney-6484a738/ ,"Brooklyn, NY, USA",40.678178,-73.944158,Male,Male,Male
439,Swilling,Mark Swilling,Professor,Stellenbosch University,Cape Town,South Africa,https://www.linkedin.com/in/mark-swilling-31b7426/,"Cape Town, South Africa",-33.924868,18.424055,Male,Male,Male
440,Tare,Meghna Tare,Chief Sustainability Officer,University of Texas - Arlington,"Dallas, TX",USA,https://www.linkedin.com/in/meghnatare/,"Dallas, TX, USA",32.776664,-96.796988,Male,Male,Male
441,Teixeira,Izabella Teixeira,Co-Chair; Former Minister of the Environment,UNEP International Resource Panel; Brazil,Rio de Janeiro,Brazil,https://www.linkedin.com/in/izabella-monica-teixeira-she-her-66405812a/?originalSubdomain=br,"Rio de Janeiro, Brazil",-22.906847,-43.172896,Male,Male,Male
442,Tenuta,Emilio Tenuta,Vice President Corporate Sustainability,Ecolab,"Saint Paul, MN",USA,https://www.linkedin.com/in/emilio-tenuta-670846/,"Saint Paul, MN, USA",44.953703,-93.089958,Male,Male,Male
443,Tercek,Mark Tercek,Chief Instigator; Former President and Chief Executive Officer,The Instigator; The Nature Conservancy,"Washington, DC",USA,https://www.linkedin.com/in/marktercek/ ,"Washington, DC, USA",38.907192,-77.036871,Male,Male,Male
444,Terry,Bryant  Terry,Author,Ten Speed Press,"San Francisco, CA",USA,https://www.linkedin.com/in/bryant-terry-54b9033/,"San Francisco, CA, USA",37.77493,-122.419416,Male,Male,Male
445,Tesfaye,Filagot Tesfaye,President and Founder,Ethiopian Women in Energy network ,Addis Ababa,Ethiopia,https://w4c.org/profile/addis-ababa-filagot-tesfaye http://ewien.org/about/team/filagot-tesfaye/,"Addis Ababa, Ethiopia",8.980603,38.75776,Male,Male,Male
446,Thant Sin,Devi Thant Sin,Founder,Myanmar Green Network,Yangon,Myanmar,https://news.mongabay.com/2017/01/myanmars-green-princess-is-a-humble-activist-on-a-mission/,"Yangon, Myanmar",16.840939,96.173526,Male,Male,Male
447,Thomassin,Kim Thomassin,Executive Vice-President and Head of Investments in Québec and Stewardship Investing,CDPQ,Montreal,Canada,https://www.linkedin.com/in/kim-thomassin-794682/ ,"Montreal, Canada",45.501689,-73.567256,Male,Male,Male
448,Thunberg,Greta Thunberg,Social Media Climate Activist,,Stockholm,Sweden,https://www.instagram.com/gretathunberg/,"Stockholm, Sweden",59.329324,18.068581,Male,Male,Male
449,Torcellini,Paul Torcellini,Principal Engineer,National Renewable Energy Laboratory,"Golden, CO",USA,https://www.linkedin.com/in/paul-torcellini-b17562209/ ,"Golden, CO, USA",39.755543,-105.2211,Male,Male,Male
450,Tournay,Robert Tournay,Head of Sustainability,PwC,"New York, NY",USA,https://www.linkedin.com/in/robert-tournay-7913ba6a/,"New York, NY, USA",40.712775,-74.005973,Male,Male,Male
451,Tubiana,Laurence Tubiana,President and Chief Executive Officer,European Climate Foundation,Paris,France,https://www.linkedin.com/in/laurence-tubiana-4381314/,"Paris, France",48.856614,2.352222,Male,Male,Male
452,Turner,Adair Turner,Chair,The Energy Transitions Commission,London,United Kingdom,https://www.oecd.org/greengrowth/GGSD%202019_Bio_Turner.pdf,"London, United Kingdom",51.507218,-0.127586,Male,Male,Male
453,Ubaldo,Marinel Sumook Ubaldo,Climate Activist,,Manila,Philippines,https://www.instagram.com/mrnlsmkbld/?hl=en,"Manila, Philippines",14.599512,120.98422,Male,Male,Male
454,Uren,Sally Uren,Chief Executive Officer,Forum for the Future,London,United Kingdom,https://www.linkedin.com/in/dr-sally-uren-97b90624/,"London, United Kingdom",51.507218,-0.127586,Male,Male,Male
455,Valdes,Helena Molin Valdes,Head of Secretariat,Climate and Clean Air Coalition,Paris,France,https://www.linkedin.com/in/helena-molin-valdes-7a222748/,"Paris, France",48.856614,2.352222,Male,Male,Male
456,Valiente,Diwigdi Valiente,Head of Sustainability,Panamanian Ministry of Tourism,Panama City,Panama,https://www.linkedin.com/in/diwigdi-valiente-19a25591/?originalSubdomain=pa,"Panama City, Panama",8.982379,-79.51987,Male,Male,Male
457,van Hook,Evan van Hook,Chief Sustainability Officer,Honeywell,"Morris Plains, NJ",USA,https://www.sandia.gov/about/BofM/vanhook.html,"Morris Plains, NJ, USA",40.839592,-74.48187,Male,Male,Male
458,van Tol,Wouter  van Tol,"Head of Government, Community Affairs, and Sustainability",DS Smith,London,United Kingdom,https://www.linkedin.com/in/woutervantol/,"London, United Kingdom",51.507218,-0.127586,Male,Male,Male
459,Vanacker,Peter Vanacker,Chief Executive Officer,Neste Corporation,Helsinki,Finland,https://www.linkedin.com/in/peter-vanacker-ba954519/,"Helsinki, Finland",60.169856,24.938379,Male,Male,Male
460,Vandycke,Nancy Vandycke,Program Manager,Sustainable Mobility for All,"Washington, DC",USA,https://www.linkedin.com/in/nancy-vandycke/ ,"Washington, DC, USA",38.907192,-77.036871,Male,Male,Male
461,Vera,Francisco Vera,Founder,Guardianes Por La Vida,Villeta,Colombia,https://twitter.com/franciscoactiv2?ref_src=twsrc%5Egoogle%7Ctwcamp%5Eserp%7Ctwgr%5Eauthor,"Villeta, Colombia",5.011706,-74.470362,Male,Male,Male
462,Victor,David Victor,Professor; Center for Global Transformation Endowed Chair in Innovation and Public Policy,University of California San Diego,"La Jolla, CA",USA,https://gps.ucsd.edu/faculty-directory/david-victor.html,"La Jolla, CA, USA",32.832811,-117.271272,Male,Male,Male
463,Vien,Colleen Vien,Sustainability Director,Timberland,"Beverely, MA",USA,https://www.linkedin.com/in/colleen-vien/,"Beverely, MA, USA",42.558428,-70.880049,Male,Male,Male
464,Visbeck,Martin Visbeck,Head of Research,GeoMar,Kiel,Germany,https://www.linkedin.com/in/martin-visbeck-6b5b936b/,"Kiel, Germany",54.323293,10.122765,Male,Male,Male
465,Voraakhom,Kotchakorn Voraakhom,Chairwoman of Climate Change Working Group,International Federation of Landscape Architects (IFLAWorld),Bangkok City,Thailand,https://www.linkedin.com/in/kotch-voraakhom/?originalSubdomain=th,"Bangkok City, Thailand",13.756331,100.501765,Male,Male,Male
466,Walker,Lisa Walker,Chief Executive Officer,Ecosphere+,South Nutfield,United Kingdom,https://www.linkedin.com/in/lisa-walker-0286758/,"South Nutfield, United Kingdom",51.226437,-0.130931,Male,Male,Male
467,Walters,Jason Walters,Former Director of Sustainability,Pearson Plc,"New York, NY",USA,https://www.linkedin.com/in/jason-walters-307a881/,"New York, NY, USA",40.712775,-74.005973,Male,Male,Male
468,Wang,Miranda Wang,Co-Founder and Chief Executive Officer,Novoloop,"Menlo Park, CA",USA,https://www.linkedin.com/in/mirandaywwang/,"Menlo Park, CA, USA",37.45296,-122.181725,Male,Male,Male
469,Warner,John Warner,Distinguished Research Fellow,Zymergen,"Wilmington, MA",USA,https://www.linkedin.com/in/john-warner-5681177/,"Wilmington, MA, USA",42.548171,-71.172447,Male,Male,Male
470,Wathuti,Elizabeth Wanjiru Wathuti,Founder,Green Generation Initiative (GGI),Nairobi,Kenya,https://www.linkedin.com/in/elizabeth-wathuti-8415a299/,"Nairobi, Kenya",-1.292066,36.821946,Male,Male,Male
471,Watterson,Andrew Watterson,President and Founder; Former Head of Sustainability,Blue CSR Strategies; KeyBank,"Cleveland, OH",USA,https://www.linkedin.com/in/andrew-watterson/,"Cleveland, OH, USA",41.49932,-81.69436,Male,Male,Male
